"admin_name","pop_size","pfpr_u5","pfpr_all","mortality_pp_u5","mortality_pp_all","node_id.x","lon.x","lat.x","cluster_id.x","seasonality_archetype.x","deaths_u5","deaths_all","cases_pp_u5","cases_pp_all","node_id.y","lon.y","lat.y","cluster_id.y","seasonality_archetype.y","clinical_cases_u5","clinical_cases_all","mortality_rate_u5","mortality_rate_all","incidence_u5","incidence_all","frac_u5","pop_size_u5"
"Bubanza",201303.876182995,0.173354584389191,0.218675317438859,0.00125031930159758,0.00209434775112361,1,29.42838636,-3.04668647,1,"Gitega",251.694121878008,421.600320376322,1.51189211882045,4.33694316361182,1,29.42838636,-3.04668647,1,"Gitega",304349.743889077,873043.4696204,2.32293944675655,0.698135806632438,2812.16663837981,1445.62559109003,0.179307547469418,36095.3043344603
"Bugarama",195016.1571555,0.0329959371122315,0.0790538620388777,0.000366876192018813,0.000987542415559332,2,29.4303905,-3.72944816,1,"Gitega",71.5467851193522,192.586726910441,0.154901339305815,1.49904175778835,2,29.4303905,-3.72944816,1,"Gitega",30208.2639296603,292337.363019511,0.677393097284615,0.329236575664889,287.28195926121,499.718106356596,0.179303860394267,34967.1498172362
"Buhiga",277009.19890515,0.110315280020695,0.187485282403323,0.00101775727850437,0.0018661030126173,3,30.1393365,-3.0502219,1,"Gitega",281.92812839838,516.927700599606,1.18667406626182,4.04776834289746,3,30.1393365,-3.0502219,1,"Gitega",328719.632456705,1121269.06601965,1.85491759599533,0.621880498759381,2167.41995877532,1349.25908208051,0.182941438023902,50676.4611935572
"Busoni",218791.205835172,0.398836826129328,0.290359092689933,0.00328602311304558,0.00434360465067635,5,30.25180248,-2.47173859,1,"Gitega",718.952959305488,950.342499192739,2.96508667088586,5.19039047764057,5,30.25180248,-2.47173859,1,"Gitega",648734.888128912,1135611.79135838,6.17323375904468,1.44801415558552,5585.80037947448,1730.17391488994,0.177225430094097,38775.3655549444
"Butezi",125726.232208091,0.311780620311111,0.265401716111111,0.00267952957963887,0.0035713113423827,6,30.17161805,-3.44652457,1,"Gitega",336.887158138125,449.007519119797,2.33702630119122,4.82408120226648,6,30.17161805,-3.44652457,1,"Gitega",293825.511419983,606513.553426843,4.94430618913561,1.19052186027469,4315.29603441949,1608.01699232192,0.180265608380724,22664.1157384077
"Cankuzo",179215.356633093,0.199376068155556,0.243086774111111,0.00180277519351228,0.00289540928930011,8,30.52891483,-3.14505865,1,"Gitega",323.084999234596,518.90180838069,1.98674534430389,5.18386554647288,8,30.52891483,-3.14505865,1,"Gitega",356055.275418558,929028.31264914,3.31963108126262,0.964932264698695,3666.31665278449,1727.9340752922,0.180776045040355,32397.8433826274
"Cibitoke",305498.934537512,0.192724149588889,0.225989717666667,0.00157985853861508,0.00249051114533763,9,29.19244319,-2.90271457,1,"Gitega",482.645100266898,760.848501354445,1.50702499559974,4.22737194232773,9,29.19244319,-2.90271457,1,"Gitega",460394.530477118,1291457.6242749,2.90817070143086,0.830362320750799,2777.18170890047,1409.07836369708,0.180863254176661,55253.5314479573
"Gahombo",256161.000799576,0.1049301936,0.178044213755556,0.000769413481125779,0.00152801319409709,11,29.74184956,-3.01315344,1,"Gitega",197.093727353865,391.417389034868,1.00387355256706,3.70146964966367,11,29.74184956,-3.01315344,1,"Gitega",257153.253901805,948172.169887102,1.42578355284816,0.509354167104687,1851.88785655914,1233.73870071721,0.180059545346661,46124.2333395174
"Gihofi",293350.813541338,0.268072558666667,0.259106036222222,0.00222422717294962,0.00313486293319165,13,30.11562611,-3.91875872,1,"Gitega",652.47885068552,919.614591792355,2.05562144165812,4.89360572865345,13,30.11562611,-3.91875872,1,"Gitega",603018.222243426,1435543.22165104,4.05729944500618,1.04502203163122,3732.99360442108,1631.17582288177,0.1836526675467,53874.6594338613
"Gitega",313416.21747821,0.158033173788889,0.210167890677778,0.00108179897025463,0.00189990815937438,14,29.93208819,-3.40581734,1,"Gitega",339.05334132903,595.462028867105,1.21036518049337,4.04213813980862,14,29.93208819,-3.40581734,1,"Gitega",379348.076637563,1266871.64630323,2.03228717818698,0.633468986900041,2278.74737830845,1347.30553015706,0.176966349818233,55464.1239809562
"Kayanza",291321.219954611,0.0207276831783333,0.0671446635558222,0.000312500405738205,0.00082115300461724,18,29.57431919,-2.89999679,1,"Gitega",91.0379994359647,239.219295074489,0.203009266588327,1.5896412411237,18,29.57431919,-2.89999679,1,"Gitega",59140.9072046023,463096.225654319,0.58079177305014,0.273813053190329,377.497796193302,529.855603616456,0.180681086795208,52636.2346279049
"Kibuye",229010.83476279,0.0927985503444444,0.173420887477778,0.000682663407560605,0.00142630634733533,20,29.97990171,-3.64488773,1,"Gitega",156.337316827465,326.639607230729,0.874985250061097,3.63274109030945,20,29.97990171,-3.64488773,1,"Gitega",200381.10252162,831937.069568856,1.28915544916564,0.475452253554632,1641.48208248383,1210.84392907515,0.17774878239014,40706.3970332354
"Kinyinya",335969.532434028,0.400594242555556,0.292988566777778,0.00346992922591016,0.00431390414680071,22,30.41267628,-3.52205978,1,"Gitega",1165.79049960821,1449.34035916585,3.50177593870416,5.70651532882329,22,30.41267628,-3.52205978,1,"Gitega",1176490.02481517,1917215.28685237,6.48237959571718,1.43837271236994,6559.52333109495,1902.16465753769,0.178052655103307,59820.2672836955
"Kirundo",256307.246344997,0.389970028555556,0.290158526333333,0.00356903682783704,0.00456742506452443,24,30.06174634,-2.49096793,1,"Gitega",914.770001446795,1170.66414117538,3.3589229211238,5.53514439194519,24,30.06174634,-2.49096793,1,"Gitega",860916.284598334,1418697.61722142,6.75916139281308,1.52257011862101,6345.41271286878,1845.14419417094,0.17648410201075,45234.154210045
"Mabayi",303326.537061169,0.116041246377778,0.188122079,0.00099991532458622,0.00188618751113204,25,29.25327932,-2.76167182,1,"Gitega",303.300852761133,572.130725999708,1.16026469848066,3.97224669404076,25,29.25327932,-2.76167182,1,"Gitega",351939.073064459,1204887.83405606,1.85653552461478,0.628549549218686,2143.92248142928,1323.95174392883,0.180563146921644,54769.5940766094
"Makamba",295318.120745996,0.163054624466667,0.209876154744444,0.00128689937804027,0.00222214957588853,26,29.92731052,-4.1790986,1,"Gitega",380.044705912043,656.241036767912,1.11800921435826,3.84500143021475,26,29.92731052,-4.1790986,1,"Gitega",330168.38016099,1135498.59663669,2.32500456892126,0.740572676027901,2033.83620261525,1281.63496274447,0.18335584644906,54148.3040011279
"Mpanda",237180.714274938,0.1491660523,0.205347173366667,0.00115296518638329,0.0021220740235718,28,29.3715791,-3.19732191,1,"Gitega",273.461106440527,503.31503265505,1.11986249805108,3.89793580613132,28,29.3715791,-3.19732191,1,"Gitega",265609.787177471,924515.198696082,2.12423847229562,0.707293474788123,2072.75797013498,1299.35008413747,0.17911819115688,42483.3805182237
"Mukenke",165895.919547284,0.348353081444444,0.276559685,0.00256308471934971,0.00339393699245979,29,30.2945314,-2.59545461,1,"Gitega",425.205296394112,563.040298249661,3.76853946243659,5.91447628943718,29,30.2945314,-2.59545461,1,"Gitega",625185.319471145,981187.482676788,4.76706779581274,1.13141170569404,7016.43213050361,1971.47167245353,0.179437355229409,29767.9250469154
"Murore",149893.801163942,0.388086438333333,0.290421641888889,0.00328386419572049,0.00407760606818047,31,30.73189158,-3.13601584,1,"Gitega",492.230886802716,611.207873208726,3.14071240325216,5.52525622124987,31,30.73189158,-3.13601584,1,"Gitega",470773.320486205,828201.657407862,6.02214846662736,1.35896871129111,5773.2330159253,1841.77727072205,0.18123330875851,27165.7495473314
"Musema",287439.683206241,0.0869470899222222,0.168535658811111,0.000806547840644,0.00165442166738442,32,29.68877279,-3.1146423,1,"Gitega",231.833855805389,475.546439962518,0.856972890829785,3.55708262228473,32,29.68877279,-3.1146423,1,"Gitega",246328.01625645,1022446.70208795,1.48644209684288,0.551452311300322,1586.67518372474,1185.7214972252,0.179955851731996,51726.4530129542
"Mutaho",219384.247581389,0.173799406833333,0.218279007077778,0.00137658492972146,0.00228966827479081,33,29.90982779,-3.2165473,1,"Gitega",302.001049038821,502.31715167596,1.78395607091076,4.59893772806103,33,29.90982779,-3.2165473,1,"Gitega",391371.860335008,1008934.49314433,2.55926415289603,0.762885452171661,3306.00356382098,1532.89970861044,0.180631885986891,39627.7903964413
"Nyabikere",282828.083512144,0.1466128261,0.213371902888889,0.00107376592796243,0.00184660687184206,36,30.10137516,-3.2203545,1,"Gitega",303.691159546254,522.272282563445,1.88162377058795,4.83016208591218,36,30.10137516,-3.2203545,1,"Gitega",532176.044926285,1366105.48581156,2.00168654402321,0.615310837809369,3499.89420836486,1609.91854410249,0.1797165549476,50828.8888112347
"Nyanza-Lac",278570.479522085,0.0910700281033333,0.161745315488889,0.000714378954246798,0.00154335947307149,37,29.69277209,-4.26539196,1,"Gitega",199.004887845016,429.934388488478,0.544969450139435,3.0135239647039,37,29.69277209,-4.26539196,1,"Gitega",151812.401050229,839478.815898859,1.35300504712426,0.514534602209677,1029.5414597612,1004.49043093424,0.176413230414417,49143.5181905843
"Rumonge",321456.915315988,0.0724121096122222,0.141381502744444,0.000616767342628642,0.00156934035176387,38,29.48683067,-3.91706212,1,"Gitega",198.264127429042,504.47530855892,0.436694042731744,2.67617230917104,38,29.48683067,-3.91706212,1,"Gitega",140378.319913415,860274.095360186,1.16128455394792,0.52305989274788,822.912873627387,892.127486917119,0.176243088693294,56654.5596371082
"Rutana",205251.159437843,0.1111257069,0.199485044,0.000904799698978259,0.00206273110351783,39,30.06662123,-3.8161435,1,"Gitega",185.711187274299,423.377950605535,1.02254751029704,4.29784691135833,39,30.06662123,-3.8161435,1,"Gitega",209879.062068747,882138.061642649,1.70168979631402,0.6875963111876,1914.90520908518,1432.69164464833,0.178108658011886,36557.0085628579
"Ruyigi",118387.887266573,0.0974203726611111,0.1714438591,0.00086174987879872,0.0017382214058285,40,30.33466786,-3.36084579,1,"Gitega",102.020747503206,205.784359837569,0.869128889780874,3.52273961317658,40,30.33466786,-3.36084579,1,"Gitega",102894.3330235,417049.70019424,1.59267202093249,0.579624022541176,1607.69490019159,1174.22318926587,0.180463203705173,21364.6574160127
"Ryansoro",170536.623649706,0.0626036049966667,0.137901673233333,0.000562855782897022,0.00137183536008009,42,29.83676162,-3.63821585,1,"Gitega",95.9875248169701,233.948170511337,0.444299734211418,2.8478468675668,42,29.83676162,-3.63821585,1,"Gitega",75769.3765608771,485662.189466233,1.05378839330434,0.457425854175175,824.606534411825,949.298329434956,0.178795834907152,30491.2380076959
"Vumbi",220988.71850429,0.419789337111111,0.295306214888889,0.00322097834558512,0.00424027755506568,43,30.03599031,-2.63887858,1,"Gitega",711.799876920923,937.053502996469,3.3597112771422,5.43786431389375,43,30.03599031,-2.63887858,1,"Gitega",742458.289680067,1201706.66612759,6.07135719842944,1.41370658011421,6318.80278503067,1812.67290761981,0.177363756026678,39195.3891534431
