"admin_name","pop_size","pfpr_u5","pfpr_all","mortality_pp_u5","mortality_pp_all","node_id.x","lon.x","lat.x","cluster_id.x","seasonality_archetype.x","deaths_u5","deaths_all","cases_pp_u5","cases_pp_all","node_id.y","lon.y","lat.y","cluster_id.y","seasonality_archetype.y","clinical_cases_u5","clinical_cases_all","mortality_rate_u5","mortality_rate_all","incidence_u5","incidence_all","frac_u5","pop_size_u5"
"Bubanza",201303.876182995,0.148556893268248,0.195176098410503,0.00131929822628249,0.00208389144054055,1,29.42838636,-3.04668647,1,"Gitega",265.579846792015,419.495424525379,1.38923665383745,3.99903661419575,1,29.42838636,-3.04668647,1,"Gitega",279658.723352973,805021.571435324,2.44662081187168,0.694465749779197,2572.49091819056,1333.06273832485,0.180405754785671,36316.3777240744
"Bugarama",195016.1571555,0.0276827402362793,0.0685963471069189,0.000311611743517413,0.000878141849229785,2,29.4303905,-3.72944816,1,"Gitega",60.7693247452912,171.251848874217,0.138665436223709,1.26138799911633,2,29.4303905,-3.72944816,1,"Gitega",27042.0005026389,245991.040269732,0.581060257003364,0.292608815430173,258.062122053838,420.446083246818,0.178568821142819,34823.8052870604
"Buhiga",277009.19890515,0.099382456188653,0.172141894629459,0.000826912576879891,0.00159928396932208,3,30.1393365,-3.0502219,1,"Gitega",229.062390486092,443.016371163757,1.1040821346171,3.7285454393291,3,30.1393365,-3.0502219,1,"Gitega",305840.90763577,1032841.38523001,1.52823733593975,0.53310478359707,2037.50645087192,1242.78313080542,0.180694712826252,50054.0976463963
"Bururi",161565.439110322,0.0461070322872774,0.097554315220061,0.000512254256639201,0.00119413970813674,4,29.64527524,-4.00189913,1,"Gitega",82.7625839100441,192.931706304184,0.247649937692006,1.75804990740299,4,29.64527524,-4.00189913,1,"Gitega",40011.6709288529,284040.105267426,0.959444299812022,0.398001774355067,463.793671610617,585.988420170563,0.178918149449451,28906.9893806068
"Busoni",218791.205835172,0.377360032801127,0.280900149652654,0.00297301645699582,0.00384392086407215,5,30.25180248,-2.47173859,1,"Gitega",650.469855593925,841.016080985322,3.08530760315731,5.24976198721577,5,30.25180248,-2.47173859,1,"Gitega",675038.170867213,1148601.75553059,5.4413427058666,1.28118265775814,5642.67900820514,1749.93873070343,0.182414836562419,39910.7620537175
"Butezi",125726.232208091,0.281588979392964,0.24852808747794,0.00233415716023328,0.00323434263121531,6,30.17161805,-3.44652457,1,"Gitega",293.464785137668,406.641712692705,2.25920697326095,4.66211561116231,6,30.17161805,-3.44652457,1,"Gitega",284041.580526344,586150.229909958,4.39157962421145,1.07808950067766,4236.96986165976,1554.00941516476,0.178544546124189,22447.733065498
"Buye",194429.100944065,0.160999545977118,0.197472419151104,0.0014112786582383,0.0024172213680694,7,29.8634721,-2.84840217,1,"Gitega",274.393640702818,469.978177376517,1.5856434862215,4.11983630075884,7,29.8634721,-2.84840217,1,"Gitega",308295.237443859,801016.067993263,2.61440016843799,0.805724878387947,2930.49861325403,1373.29648142002,0.180242778296861,35044.4413359192
"Cankuzo",179215.356633093,0.17511707958866,0.222730813725407,0.00143623339813378,0.00234469972248971,8,30.52891483,-3.14505865,1,"Gitega",257.395080654904,420.206196963508,1.89197355286143,4.92101301256615,8,30.52891483,-3.14505865,1,"Gitega",339070.715016441,881921.102043133,2.65089549480952,0.781536872824774,3489.03911605959,1640.34575394573,0.180700599486421,32384.3223807726
"Cibitoke",305498.934537512,0.168893036245859,0.204171302283251,0.00134598411898995,0.00223513128108253,9,29.19244319,-2.90271457,1,"Gitega",411.196714255842,682.830224922177,1.3957950601538,3.9487552022775,9,29.19244319,-2.90271457,1,"Gitega",426413.903709707,1206340.50704523,2.53304181425764,0.745179673402566,2624.50646581511,1316.25086497071,0.177621217853104,54263.0928053785
"Fota",170992.624432377,0.0229661539872536,0.0666508751793257,0.00029805904747289,0.000790931274594,10,29.67894889,-3.45736142,1,"Gitega",50.9658987632039,135.243414388473,0.194726586763298,1.4405424967599,10,29.67894889,-3.45736142,1,"Gitega",33296.8101174153,246322.142127345,0.564918389327389,0.263647597469029,368.191781729982,480.186267343951,0.177609700418358,30369.9487991833
"Gahombo",256161.000799576,0.0906418377549614,0.159269269712358,0.000759494827490312,0.00159349888154173,11,29.74184956,-3.01315344,1,"Gitega",194.55295511202,408.192268268735,0.885241808090967,3.26337071436129,11,29.74184956,-3.01315344,1,"Gitega",226764.427510208,835948.308170814,1.4426186760883,0.531075998152073,1685.22887293901,1087.77024395105,0.174488271923215,44697.0903636393
"Gashoho",175175.077974295,0.291958713777592,0.251827042901262,0.00241484060067563,0.0032850010329848,12,30.20685363,-2.81184823,1,"Gitega",423.019890518846,575.450312098751,2.96146826086046,5.29298816430403,12,30.20685363,-2.81184823,1,"Gitega",518775.433514631,927199.61439898,4.47450283954225,1.09514775376978,5466.48533675507,1764.37547774136,0.180668387744138,31648.5989105696
"Gihofi",293350.813541338,0.243061834771285,0.24079500901191,0.00207861321899286,0.00290759703331399,13,30.11562611,-3.91875872,1,"Gitega",609.762878829335,852.945955173039,1.96402741827468,4.66160473207332,13,30.11562611,-3.91875872,1,"Gitega",576149.04096837,1367485.54056186,3.78531473143559,0.968979789113072,3586.43111239801,1553.86908601769,0.182468941246521,53527.4123606934
"Gitega",313416.21747821,0.13209463645511,0.182395508663304,0.00100011729221083,0.00169187792863781,14,29.93208819,-3.40581734,1,"Gitega",313.452978759269,530.261980828532,1.11231660915287,3.65895829549746,14,29.93208819,-3.40581734,1,"Gitega",348618.064278881,1146776.86888533,1.84121524670206,0.563924911104731,2055.48693158779,1219.66928542343,0.180626066924567,56611.1386734637
"Giteranyi",453301.276677646,0.158141247053539,0.179579570155031,0.00128296859793498,0.00193616838490181,15,30.39329113,-2.56546547,1,"Gitega",581.571303381256,877.667600738887,1.70929194063724,3.71146185286204,15,30.39329113,-2.56546547,1,"Gitega",774824.218905674,1682410.39624274,2.38981857177166,0.645268924273631,3173.53898645683,1237.21127033773,0.179770241760727,81490.0800987866
"Isale",265730.978365878,0.0247070625865372,0.0690587324789329,0.000301108961478312,0.000899240136653356,16,29.40701752,-3.32222774,1,"Gitega",80.0139789283653,238.955961298762,0.161347522197332,1.37914120291985,16,29.40701752,-3.32222774,1,"Gitega",42875.0349304072,366480.541156586,0.557943606086551,0.299664592711038,297.954130129457,459.690536837894,0.179818126667871,47783.2467273726
"Kabezi",241409.508399963,0.0282818428766394,0.0694537082748248,0.000343531082706445,0.00090007739353244,17,29.4070419,-3.49595876,1,"Gitega",82.9316697962699,217.287241094586,0.162860932865616,1.32430950462612,17,29.4070419,-3.49595876,1,"Gitega",39316.1777406477,319700.906481191,0.653461101670231,0.300026597767603,307.340414687782,441.440206053501,0.178194724682185,43017.9008849929
"Kayanza",291321.219954611,0.0179597269402704,0.0598536230887087,0.00028126286500284,0.000740557996901099,18,29.57431919,-2.89999679,1,"Gitega",81.9378409605563,215.740259104371,0.179980727284145,1.38016629853461,18,29.57431919,-2.89999679,1,"Gitega",52432.2050407352,402071.729829344,0.531193220790718,0.246951198930299,337.994635061613,460.063591959758,0.17874828831642,52073.169417138
"Kibumbu",188272.989460859,0.0970914220835605,0.168041020443989,0.000868822588290896,0.00164725193335854,19,29.75815592,-3.52984716,1,"Gitega",163.575826008648,310.133045888591,0.926422096439569,3.42378571037666,19,29.75815592,-3.52984716,1,"Gitega",174420.257599274,644606.370965985,1.60359296135625,0.549006545156812,1705.0474460574,1141.18927593761,0.180633305541853,34008.3724305615
"Kibuye",229010.83476279,0.0797752595289451,0.146950208678802,0.000611491477766573,0.00127227139678193,20,29.97990171,-3.64488773,1,"Gitega",140.038173773655,291.36393462185,0.797921684297905,3.19586170540979,20,29.97990171,-3.64488773,1,"Gitega",182732.710996395,731886.956942329,1.13158579521478,0.424108875856725,1467.97426308903,1065.27955231001,0.180646653668943,41370.0409538292
"Kiganda",181441.287830066,0.130823333239973,0.19819080935829,0.00111346154094938,0.00216800344332847,21,29.7194871,-3.29696221,1,"Gitega",202.027895939106,393.365336777535,0.980054182302763,3.85091012543313,21,29.7194871,-3.29696221,1,"Gitega",177822.292980256,698714.092476427,2.02354860869525,0.722729428528274,1779.23409931846,1283.69454472909,0.183291300118848,33256.609541611
"Kinyinya",335969.532434028,0.383493628121589,0.285715773726796,0.00341650134219614,0.00436457262901994,22,30.41267628,-3.52205978,1,"Gitega",1147.84035849787,1466.36342544619,3.50202043886512,5.72536002669283,22,30.41267628,-3.52205978,1,"Gitega",1176572.16941992,1923546.53118446,6.43709931336425,1.45492708680391,6586.56557440697,1908.46891545308,0.177318090069928,59573.4758128886
"Kiremba",294281.031087941,0.382812368985836,0.280811240859004,0.00307483888316217,0.00402063079103462,23,30.02654773,-2.83495738,1,"Gitega",904.866756966255,1183.19537480959,3.28067845659984,5.42731503904905,23,30.02654773,-2.83495738,1,"Gitega",965441.438876196,1597155.86573044,5.66654333672771,1.34041270549206,6031.64917894699,1809.16750515653,0.181247518038891,53337.706490615
"Kirundo",256307.246344997,0.372298126458047,0.281130328460572,0.00291228015709087,0.00379154722311156,24,30.06174634,-2.49096793,1,"Gitega",746.438507649137,971.801028142745,3.38137602166924,5.50872632438298,24,30.06174634,-2.49096793,1,"Gitega",866671.176971044,1411926.4750708,5.51744955000044,1.26380726571498,6378.98025482909,1836.27694292299,0.176793638854393,45313.4907460813
"Mabayi",303326.537061169,0.098755942557142,0.164712914290807,0.000865066828186522,0.0017417621793804,25,29.25327932,-2.76167182,1,"Gitega",262.397725320307,528.32269025557,1.07528747775182,3.59907821316458,25,29.25327932,-2.76167182,1,"Gitega",326163.226971697,1091695.93101151,1.58420554926747,0.580628852353656,1966.72066333538,1199.64137052411,0.182365878876966,55316.4105178667
"Makamba",295318.120745996,0.132838060232389,0.177885847326527,0.0010612596222984,0.00192439413045904,26,29.92731052,-4.1790986,1,"Gitega",313.40919728077,568.30845818179,0.978367269471365,3.39150232609885,26,29.92731052,-4.1790986,1,"Gitega",288929.583419675,1001572.09344919,1.95522404691001,0.641530159875316,1808.9911500782,1130.54436458425,0.179941047594954,53139.8520208077
"Matana",269314.261921348,0.0203243644013902,0.056079863260715,0.000269672858754098,0.000826787152349087,27,29.69986058,-3.78483474,1,"Gitega",72.6267469155798,222.665571700948,0.124201180749156,1.11994342789155,27,29.69986058,-3.78483474,1,"Gitega",33449.1493232188,301616.737676278,0.505131702568648,0.275595150016773,231.354734664245,373.326806345829,0.177786273517918,47880.3790322249
"Mpanda",237180.714274938,0.124299309804926,0.1769935982732,0.00111310349776748,0.00189510671241292,28,29.3715791,-3.19732191,1,"Gitega",264.006682662423,449.482763677326,1.01022501147711,3.49773689153136,28,29.3715791,-3.19732191,1,"Gitega",239605.889800549,829595.73427921,2.03734351840683,0.631611179820585,1855.54873347447,1165.8513016352,0.180739394016263,42867.8985703967
"Mukenke",165895.919547284,0.337875587102601,0.271185156249049,0.00253884195930758,0.00334683584143345,29,30.2945314,-2.59545461,1,"Gitega",421.18352142456,555.22640948841,3.75538672299567,5.88346725217321,29,30.2945314,-2.59545461,1,"Gitega",623003.333667028,976043.209925607,4.75278031898259,1.11561033974003,7007.02098163043,1961.15836866789,0.178580581141112,29625.7897216931
"Muramvya",194198.551247032,0.020626790282101,0.0566740827113173,0.000299467851095512,0.000770114605775919,30,29.59502105,-3.24965852,1,"Gitega",58.1562228278104,149.555140735863,0.124619038824993,1.11843564365558,30,29.59502105,-3.24965852,1,"Gitega",24200.8367976113,217198.581660956,0.569442608073292,0.256713231188255,231.226904948525,372.801914420021,0.178120554924754,34590.7537137046
"Murore",149893.801163942,0.362944560112613,0.278883448154224,0.0030971923292551,0.00399834237169028,31,30.73189158,-3.13601584,1,"Gitega",464.249931167851,599.326736447507,3.13935198047533,5.49736474483422,31,30.73189158,-3.13601584,1,"Gitega",470569.401544997,824020.897987845,5.68422894796043,1.33282917018668,5760.10165604057,1832.49838090125,0.182007508087928,27281.7972276764
"Musema",287439.683206241,0.071776357711915,0.146798917673222,0.000677548758891425,0.00141832597039847,32,29.68877279,-3.1146423,1,"Gitega",194.754400612533,407.683167614521,0.734225204126697,3.07589620835282,32,29.68877279,-3.1146423,1,"Gitega",211045.460076215,884134.631704213,1.27572666365211,0.47287987779007,1383.22857110971,1025.29838998409,0.176851810807713,50834.228473019
"Mutaho",219384.247581389,0.15682240810413,0.198101807319954,0.00112417257678666,0.0018668305317841,33,29.90982779,-3.2165473,1,"Gitega",246.625754909972,409.553211577418,1.67912462065275,4.27738013520143,33,29.90982779,-3.2165473,1,"Gitega",368373.491497289,938389.822580747,2.07714909006184,0.62230368650539,3079.83398263243,1425.79619498554,0.182072871577161,39943.9199359383
"Muyinga",326814.238908712,0.257924167325249,0.238176864320307,0.00234300300219922,0.00317323754647554,34,30.3660234,-2.92732926,1,"Gitega",765.726742924565,1037.05921362795,2.26471230713415,4.72077415270279,34,30.3660234,-2.92732926,1,"Gitega",740140.22900324,1542816.21177548,4.31880433463862,1.05783084594288,4183.69407159582,1573.60028806124,0.180664702188949,59043.7971435505
"Ngozi",366595.733529097,0.0294453619697082,0.0537856178526047,0.000350038352590317,0.000745735552071925,35,29.83498123,-2.9455671,1,"Gitega",128.322566631164,273.383471730534,0.291965734983334,1.13286722040959,35,29.83498123,-2.9455671,1,"Gitega",107033.392781577,415304.289657121,0.63796189234621,0.248544778287788,530.301062321849,377.634880991282,0.183233547996715,67172.6369349946
"Nyabikere",282828.083512144,0.137789472926871,0.204138284041591,0.000980924879751601,0.00171295905401388,36,30.10137516,-3.2203545,1,"Gitega",277.433103809526,484.472926381522,1.79005448671093,4.59371399237179,36,30.10137516,-3.2203545,1,"Gitega",506277.679858766,1299231.32466543,1.86094939994831,0.570891033455018,3376.02489796043,1531.10492679302,0.176759699552678,49992.6070666664
"Nyanza-Lac",278570.479522085,0.0680116805058597,0.123300337005761,0.00058403713477027,0.00122905064275664,37,29.69277209,-4.26539196,1,"Gitega",162.695504691659,342.377226909643,0.444091887222222,2.38309980803552,37,29.69277209,-4.26539196,1,"Gitega",123710.889975362,663861.256273442,1.07536594039185,0.409649001582279,818.505255616314,794.272308013634,0.181796473057679,50643.1306751016
"Rumonge",321456.915315988,0.0560492548307636,0.113039355756231,0.000607324833208996,0.00128036216482721,38,29.48683067,-3.91706212,1,"Gitega",195.228767478161,411.581271992655,0.366552836596464,2.13667424510586,38,29.48683067,-3.91706212,1,"Gitega",117830.944152625,686848.711866846,1.14014629577617,0.426821293205341,688.866741648097,712.179882510479,0.17818513978924,57278.8453917974
"Rutana",205251.159437843,0.0879935568800609,0.168016501546764,0.000858004152225097,0.00179302957828518,39,30.06662123,-3.8161435,1,"Gitega",176.106347046685,368.02139984938,0.878790340599537,3.72328815576649,39,30.06662123,-3.8161435,1,"Gitega",180372.736310832,764209.21089226,1.59112615176789,0.597774574651506,1627.78997723544,1241.05490593338,0.18011122526799,36968.0378140255
"Ruyigi",118387.887266573,0.0730941416665341,0.13594407088897,0.000693707157947654,0.00138043965769101,40,30.33466786,-3.36084579,1,"Gitega",82.1265248111216,163.42733457303,0.702288032208622,2.9020822642815,40,30.33466786,-3.36084579,1,"Gitega",83142.3963857777,343571.387942079,1.2918631585557,0.460109778591671,1301.08988526849,967.342215717815,0.179172897745261,21211.9008194912
"Rwibaga",145042.126181624,0.0128629514474746,0.039567576836062,0.000216802618333522,0.000598099582704286,41,29.51608705,-3.49770267,1,"Gitega",31.4455127248372,86.7496351437718,0.0838002169182056,0.825286350885863,41,29.51608705,-3.49770267,1,"Gitega",12154.5616362978,119701.287041159,0.411268193911365,0.199284766881776,157.977331162447,275.090099220845,0.179024180690209,25966.0478052311
"Ryansoro",170536.623649706,0.0443775673530099,0.101133478479039,0.000444678515104262,0.00113826455748558,42,29.83676162,-3.63821585,1,"Gitega",75.8339725754457,194.115794453717,0.336563290705777,2.16893139761673,42,29.83676162,-3.63821585,1,"Gitega",57396.3672413977,369882.237477395,0.836910313299703,0.379400233622692,630.209275579124,722.91317814088,0.178195915179991,30388.929722965
"Vumbi",220988.71850429,0.40287922401043,0.288392385881999,0.00325178328635355,0.00416935166804686,43,30.03599031,-2.63887858,1,"Gitega",718.607421304939,921.379682115399,3.41875685123132,5.46336965846934,43,30.03599031,-2.63887858,1,"Gitega",755506.69543137,1207343.05954036,6.05158224327462,1.39008656372383,6347.5057044205,1821.15037714678,0.179611906494167,39692.2050442584
"Zone Centre",199380.71284912,0.0146102948028452,0.0426038790417046,0.000217760261013307,0.000564206054106995,44,29.37230714,-3.38340592,1,"Gitega",43.4171960710436,112.491805261642,0.0975585552007782,0.909867368840205,44,29.37230714,-3.38340592,1,"Gitega",19451.2942804614,181410.004597513,0.399074133414373,0.188023933197085,177.412792669212,303.248980991269,0.180659120062008,36019.9441406579
"Zone Nord",399973.723313687,0.00253604324386448,0.00816609715906625,3.70132223733826e-05,9.76835553624226e-05,45,29.36498583,-3.33939272,1,"Gitega",14.8043163645193,39.0708553448269,0.0179430908322919,0.189675861258483,45,29.36498583,-3.33939272,1,"Gitega",7176.76484794749,75865.3604502857,0.0683551069375636,0.0325688214507196,33.3987326176913,63.2325549246148,0.176586472374819,70629.9488425859
"Zone Sud",196759.332384998,0.023749091092733,0.0647199721546803,0.000299919028588802,0.000784987216990407,46,29.35966899,-3.43755751,1,"Gitega",59.0118678346899,154.45356074579,0.143327294965859,1.31932862695371,46,29.35966899,-3.43755751,1,"Gitega",28200.9828700301,259590.219835829,0.56491617945099,0.261550939734422,269.419054597647,439.720107791279,0.177907542678082,35004.969323595
