"admin_name","pop_size","pfpr_u5","pfpr_all","mortality_pp_u5","mortality_pp_all","node_id.x","lon.x","lat.x","cluster_id.x","seasonality_archetype.x","deaths_u5","deaths_all","cases_pp_u5","cases_pp_all","node_id.y","lon.y","lat.y","cluster_id.y","seasonality_archetype.y","clinical_cases_u5","clinical_cases_all","mortality_rate_u5","mortality_rate_all","incidence_u5","incidence_all","frac_u5","pop_size_u5"
"Bubanza",201303.876182995,0.177165066264045,0.220474038443941,0.00129449441190224,0.00217701965998575,1,29.42838636,-3.04668647,1,"Gitega",260.586742813147,438.242496081717,1.58036879356172,4.38220110111837,1,29.42838636,-3.04668647,1,"Gitega",318134.363942617,882154.067868516,2.36352260360981,0.725668475223861,2882.61884704575,1460.73914521995,0.182739463601386,36786.1623545603
"Bugarama",195016.1571555,0.0411304938448134,0.0925100541024356,0.000391803869678312,0.00106820486180795,2,29.4303905,-3.72944816,1,"Gitega",76.4080850233187,208.317207204609,0.184259261985974,1.71077296057001,2,29.4303905,-3.72944816,1,"Gitega",35933.5331928131,333628.3685359,0.733050246142141,0.355959314324927,346.173290194601,570.245572908599,0.176350072587855,34391.1134701771
"Buhiga",277009.19890515,0.119708050308183,0.194961521164818,0.000877421631648167,0.00175282732633263,3,30.1393365,-3.0502219,1,"Gitega",243.053863284908,485.549293486457,1.22931145500771,4.21068311132874,3,30.1393365,-3.0502219,1,"Gitega",340530.581356611,1166397.95551262,1.66053196980513,0.584235458338542,2314.75641986217,1403.61151053831,0.177338159258598,49124.3014315381
"Busoni",218791.205835172,0.405780750009943,0.292404526361057,0.00351378441294018,0.00440686625846481,5,30.25180248,-2.47173859,1,"Gitega",768.785128752014,964.183582643848,3.06104624173053,5.24316638843132,5,30.25180248,-2.47173859,1,"Gitega",669729.998345443,1147158.69651933,6.48427155937695,1.46900777939716,5636.38842345194,1747.76523322853,0.181242381441921,39654.2391841161
"Butezi",125726.232208091,0.310060087886863,0.266238049674249,0.00254007856200159,0.00343237617589521,6,30.17161805,-3.44652457,1,"Gitega",319.354507113006,431.539724116121,2.39073210392743,4.89182213267849,6,30.17161805,-3.44652457,1,"Gitega",300577.739645718,615030.365373814,4.67873267811736,1.14424317564404,4410.39505940261,1630.65275994494,0.18072934625104,22722.4197535748
"Cankuzo",179215.356633093,0.198720681916732,0.245238494754679,0.00159411572936751,0.00241015627456095,8,30.52891483,-3.14505865,1,"Gitega",285.690018953021,431.937016286927,2.09525178771081,5.32912547907482,8,30.52891483,-3.14505865,1,"Gitega",375501.296370718,955061.123274896,2.91829862389551,0.803404664203118,3839.9686031297,1776.39611112972,0.181729987311799,32568.8044870115
"Cibitoke",305498.934537512,0.20022192525108,0.228252635186482,0.00160734402339933,0.00244733222161125,9,29.19244319,-2.90271457,1,"Gitega",491.041886583734,747.65738616156,1.56812963594153,4.29255500535617,9,29.19244319,-2.90271457,1,"Gitega",479061.932996834,1311370.98057997,2.95460931060522,0.815787059696215,2867.63895174231,1430.83858447888,0.182517992986126,55759.0523911867
"Gahombo",256161.000799576,0.11381142521155,0.183663446449085,0.00074017328361268,0.0014793667553322,11,29.74184956,-3.01315344,1,"Gitega",189.603529095332,378.956068595519,1.02590950758437,3.73314095127184,11,29.74184956,-3.01315344,1,"Gitega",262798.006192613,956285.122203675,1.40242671574827,0.493138625430306,1941.95949431419,1244.27843361316,0.175946459407682,45070.6211290139
"Gihofi",293350.813541338,0.276375896270841,0.262821073634552,0.00211931339612641,0.00297103843696064,13,30.11562611,-3.91875872,1,"Gitega",621.702308902739,871.55654254499,2.06969450881566,4.90769167303425,13,30.11562611,-3.91875872,1,"Gitega",607146.567943114,1439675.34489465,3.90435454290814,0.990073643575583,3798.10692934473,1635.91765934708,0.181161941117319,53144.0028094936
"Gitega",313416.21747821,0.160801687299796,0.212286811862446,0.00118522369308254,0.00193927318558893,14,29.93208819,-3.40581734,1,"Gitega",371.468326751486,607.799666484201,1.27877939686787,4.10020451601147,14,29.93208819,-3.40581734,1,"Gitega",400790.201555395,1285070.59029539,2.18501597943924,0.646402367483854,2343.67058613881,1366.7020388353,0.182137595246694,57084.876162796
"Kayanza",291321.219954611,0.0262391224463958,0.082941541784917,0.00031769758951731,0.00098616525892059,18,29.57431919,-2.89999679,1,"Gitega",92.552049354822,287.290866305601,0.253311282630791,1.93563577709111,18,29.57431919,-2.89999679,1,"Gitega",73794.9518842691,563891.775969974,0.600898092184735,0.328680623924196,479.8657909477,645.206180995346,0.177892135128232,51823.753825887
"Kibuye",229010.83476279,0.103382942134402,0.18089483374495,0.000902425226106517,0.0016823358652959,20,29.97990171,-3.64488773,1,"Gitega",206.665154341653,385.273140862795,0.987948962122111,3.79162892826611,20,29.97990171,-3.64488773,1,"Gitega",226251.016518617,868324.105972965,1.62607449042233,0.560625817946614,1789.66932508517,1263.95549681765,0.183781256339201,42087.8989279948
"Kinyinya",335969.532434028,0.404942251289994,0.294594316742796,0.00354268879257035,0.00461398088757378,22,30.41267628,-3.52205978,1,"Gitega",1190.23549719913,1550.15700145771,3.44362123020722,5.65476265712979,22,30.41267628,-3.52205978,1,"Gitega",1156951.81459261,1899827.9659413,6.76198933340529,1.53780044159054,6528.20951606437,1884.91354821704,0.175984095644624,59125.2943295494
"Kirundo",256307.246344997,0.390649583263386,0.289762344160936,0.00300705800118796,0.00392049788644172,24,30.06174634,-2.49096793,1,"Gitega",770.730755884178,1004.85201757526,3.43841432297193,5.57658243411194,24,30.06174634,-2.49096793,1,"Gitega",881290.506914131,1429318.48770311,5.65645649226872,1.30642692770902,6418.02850255187,1858.8073273527,0.178306986800278,45701.372790853
"Mabayi",303326.537061169,0.120239690160173,0.192677231673756,0.0010252021255007,0.00195250530794548,25,29.25327932,-2.76167182,1,"Gitega",310.971010515877,592.246673652653,1.27005162681543,4.12594251486939,25,29.25327932,-2.76167182,1,"Gitega",385240.361850827,1251507.85514878,1.84453831118548,0.650778813708634,2279.25955299156,1375.24362705863,0.186005980607337,56420.5499702904
"Makamba",295318.120745996,0.171661941517366,0.213282810488999,0.00121580112689135,0.00220562099160974,26,29.92731052,-4.1790986,1,"Gitega",359.048103994417,651.359846320109,1.15976431136095,3.92529323956748,26,29.92731052,-4.1790986,1,"Gitega",342499.416939389,1159210.22288603,2.23639030540618,0.735095209684444,2126.48940791692,1308.50650476066,0.181570082167612,53620.9354494352
"Mpanda",237180.714274938,0.160996187053867,0.210916070813242,0.00112985196024103,0.00212875283402682,28,29.3715791,-3.19732191,1,"Gitega",267.979094954906,504.899117689279,1.18483270728477,3.98486577918789,28,29.3715791,-3.19732191,1,"Gitega",281019.467810111,945133.311797542,2.0661923225767,0.709376540831575,2175.70108595543,1328.34034218005,0.181053140009059,42942.3130690689
"Mukenke",165895.919547284,0.357995734289379,0.280985849099867,0.00309752485828384,0.00386430516507399,29,30.2945314,-2.59545461,1,"Gitega",513.866734685567,641.072458771269,3.82785145668762,5.98217035803051,29,30.2945314,-2.59545461,1,"Gitega",635024.937297604,992417.652433977,5.70673181332357,1.28821562615891,7034.46026241474,1994.17337841946,0.181442714845769,30100.6060244945
"Murore",149893.801163942,0.393152854136772,0.29146421130044,0.00335345741642528,0.00440339876351466,31,30.73189158,-3.13601584,1,"Gitega",502.662479189398,660.042178703815,3.14540524866721,5.52833245537921,31,30.73189158,-3.13601584,1,"Gitega",471476.748923742,828662.765834779,6.17901582228822,1.46820267600671,5782.89521036303,1842.84714385202,0.181639159693762,27226.5840867223
"Musema",287439.683206241,0.0931509077252992,0.174248280633597,0.000900628027762905,0.00186290962578367,32,29.68877279,-3.1146423,1,"Gitega",258.876234986831,535.474152677115,0.886310626130443,3.62088479917047,32,29.68877279,-3.1146423,1,"Gitega",254760.84559726,1040785.97959985,1.69553919582938,0.621060889279512,1670.82506352994,1206.94139661894,0.177195049583702,50932.8889180536
"Mutaho",219384.247581389,0.18909643387254,0.225127332582723,0.00148350265114336,0.00223874754069625,33,29.90982779,-3.2165473,1,"Gitega",325.457112906082,491.145944740332,1.84354538626172,4.66834616669339,33,29.90982779,-3.2165473,1,"Gitega",404444.817447168,1024161.61122949,2.74477716863973,0.746371455123611,3405.47652791331,1556.07432220971,0.180216702275952,39536.705630409
"Nyabikere",282828.083512144,0.156101316915351,0.219510689119813,0.00117511119082934,0.00197254993220306,36,30.10137516,-3.2203545,1,"Gitega",332.354446015935,557.892516957002,1.98429278717946,4.98628846372396,36,30.10137516,-3.2203545,1,"Gitega",561213.726124936,1410262.41003376,2.18221264311344,0.657605744204522,3688.01942390407,1662.11006591848,0.179596316274183,50794.8819376679
"Nyanza-Lac",278570.479522085,0.0978316108802333,0.163989751882897,0.000845754920390828,0.00160356874253071,37,29.69277209,-4.26539196,1,"Gitega",235.602353731436,446.706913553408,0.593420599020429,3.02267014042259,37,29.69277209,-4.26539196,1,"Gitega",165309.460827404,842026.670454609,1.52087093004385,0.534335490605363,1072.30968708649,1007.50900652295,0.184405008350821,51369.7916025624
"Rumonge",321456.915315988,0.0794162323213045,0.146906696611024,0.000806597101906736,0.00160878126789356,38,29.48683067,-3.91706212,1,"Gitega",259.286216281755,517.153863795208,0.472285502293719,2.7538672398836,38,29.48683067,-3.91706212,1,"Gitega",151819.440715801,885249.668122736,1.52833882531531,0.536324242670874,894.204602401439,917.921479265033,0.176679721774559,56794.9183605366
"Rutana",205251.159437843,0.110926594160232,0.198818147790665,0.0010186570403789,0.00212979022389965,39,30.06662123,-3.8161435,1,"Gitega",209.080538607291,437.141912814785,1.0359624662998,4.21409828481631,39,30.06662123,-3.8161435,1,"Gitega",212632.497342121,864948.558943573,1.87953788368062,0.709671665668141,1903.98155438382,1404.69311228309,0.181435577067969,37239.8625564748
"Ruyigi",118387.887266573,0.100597723455092,0.174314700442091,0.000846692909454488,0.00168541685670859,40,30.33466786,-3.36084579,1,"Gitega",100.238184713905,199.532940829198,0.90770624191491,3.56855259372683,40,30.33466786,-3.36084579,1,"Gitega",107461.424238987,422473.402170969,1.55220889724708,0.561700437268026,1663.72171344394,1189.45446682989,0.181953510646931,21541.091706226
"Ryansoro",170536.623649706,0.0693356731059755,0.149620009666712,0.000565208403170604,0.00133021157900355,42,29.83676162,-3.63821585,1,"Gitega",96.3887327351566,226.849791423009,0.485858102936923,3.07267968372032,42,29.83676162,-3.63821585,1,"Gitega",82856.6004477141,524004.41881871,1.07068341290884,0.44351070636531,922.278487585347,1024.23826677953,0.175063374964719,29854.7168912056
"Vumbi",220988.71850429,0.425429862931947,0.298239435406476,0.00385670693640343,0.00475624864765656,43,30.03599031,-2.63887858,1,"Gitega",852.2887235224,1051.07729353339,3.4228301435734,5.49102077809809,43,30.03599031,-2.63887858,1,"Gitega",756406.847086142,1213453.64503233,7.07814304419502,1.58549194033189,6300.13812817429,1830.36811353557,0.181055032216863,40011.1195483574
