"admin_name","pop_size","pfpr_u5","pfpr_all","mortality_pp_u5","mortality_pp_all","node_id.x","lon.x","lat.x","cluster_id.x","seasonality_archetype.x","deaths_u5","deaths_all","cases_pp_u5","cases_pp_all","node_id.y","lon.y","lat.y","cluster_id.y","seasonality_archetype.y","clinical_cases_u5","clinical_cases_all","mortality_rate_u5","mortality_rate_all","incidence_u5","incidence_all","frac_u5","pop_size_u5"
"Bubanza",201303.876182995,0.119611594599534,0.17196563462952,0.00100958217584106,0.00178664058289744,1,29.42838636,-3.04668647,1,"Gitega",203.232805322068,359.657674683101,1.29146196403024,3.82042405237999,1,29.42838636,-3.04668647,1,"Gitega",259976.29930219,769066.170406838,1.84453085280611,0.595441279240776,2359.98655902241,1273.46662737309,0.182174752430384,36672.4838069138
"Bugarama",195016.1571555,0.0194867947149302,0.0595106367369011,0.000266023054378221,0.000680137760045427,2,29.4303905,-3.72944816,1,"Gitega",51.8787937796093,132.637852300409,0.119536462328395,1.10633038310445,2,29.4303905,-3.72944816,1,"Gitega",23311.5415232467,215752.299857402,0.497464901264656,0.226821294553641,222.897332316902,368.794667649283,0.17965834956904,35036.2809338536
"Buhiga",277009.19890515,0.0833576066545276,0.163560331346705,0.000781928867105008,0.00154709303451692,3,30.1393365,-3.0502219,1,"Gitega",216.60148907757,428.55900212327,1.04899780615917,3.59368247003554,3,30.1393365,-3.0502219,1,"Gitega",290582.041937413,995483.102144025,1.44920208204652,0.515592299759556,1937.46319013707,1197.77511670344,0.180983128330654,50133.9913942224
"Bururi",161565.439110322,0.0309624469246635,0.080998230601338,0.000414856424727349,0.0011214112058436,4,29.64527524,-4.00189913,1,"Gitega",67.0264604288124,181.181293895358,0.209011120602174,1.48503830528031,4,29.64527524,-4.00189913,1,"Gitega",33768.9734790308,239930.865888262,0.757233844985654,0.373846388651638,384.340023126189,494.935405886718,0.182227522006457,29441.6696109591
"Busoni",218791.205835172,0.344259200772799,0.266900247469201,0.00274891892164013,0.00368455326259005,5,30.25180248,-2.47173859,1,"Gitega",601.439285608765,806.147851285995,3.21129770528157,5.41326161297369,5,30.25180248,-2.47173859,1,"Gitega",702603.697234275,1184374.03580376,5.04551021254985,1.22846431784304,5903.73781139979,1804.45521997822,0.181524706284496,39716.0093768604
"Butezi",125726.232208091,0.24660805922066,0.231023621663517,0.00182486625720637,0.00260133371342961,6,30.17161805,-3.44652457,1,"Gitega",229.433558802237,327.055886505386,2.31144259941048,4.76747310820067,6,30.17161805,-3.44652457,1,"Gitega",290608.968989155,599396.431047466,3.39219161330316,0.867049347867481,4276.79714835038,1589.08936027197,0.18031645753258,22670.5088106816
"Buye",194429.100944065,0.138502052977121,0.1823819471463,0.00115021948063842,0.00203782929427061,7,29.8634721,-2.84840217,1,"Gitega",223.636139508878,396.213317562513,1.56609646096367,4.13626398665583,7,29.8634721,-2.84840217,1,"Gitega",304494.726896848,804210.088192807,2.11256528432615,0.679285902847471,2876.63226239067,1378.45710912968,0.181225780731335,35235.5656154798
"Cankuzo",179215.356633093,0.146297482023067,0.202305358348448,0.00120337378951896,0.00207543133606421,8,30.52891483,-3.14505865,1,"Gitega",215.663062851557,371.949167060245,1.76243182310464,4.83372822100843,8,30.52891483,-3.14505865,1,"Gitega",315854.84771921,866278.326995472,2.26086146426208,0.691737518785149,3321.05676224706,1611.26713615713,0.176776305483871,31681.0286315726
"Cibitoke",305498.934537512,0.13446527556315,0.178215373868916,0.0011069831340111,0.00188166148427474,9,29.19244319,-2.90271457,1,"Gitega",338.182167991387,574.845578606208,1.30814415844899,3.75810453128591,9,29.19244319,-2.90271457,1,"Gitega",399636.646627636,1148096.93018844,2.05837078494758,0.626904665492381,2417.84930993811,1252.61264380659,0.18058637535998,55168.9452644651
"Fota",170992.624432377,0.0169716301887298,0.0553911981001301,0.000272641215980984,0.000681513685885817,10,29.67894889,-3.45736142,1,"Gitega",46.619637049023,116.533813736198,0.164994657968518,1.20294272343362,10,29.67894889,-3.45736142,1,"Gitega",28212.8695833593,205694.333321745,0.522298455368589,0.227200874595499,312.13796755866,400.886549315843,0.177526768867954,30355.7681157314
"Gahombo",256161.000799576,0.0755084106423779,0.147709738139977,0.000651506479663487,0.00135119578587754,11,29.74184956,-3.01315344,1,"Gitega",166.890551858007,346.123664786559,0.834248090672674,3.06581100696025,11,29.74184956,-3.01315344,1,"Gitega",213701.825821848,785341.215805292,1.22862962007565,0.450304042364358,1572.32607734967,1021.86699054498,0.176131141157358,45117.9293908401
"Gashoho",175175.077974295,0.266520900643352,0.241235428901132,0.00212342341119286,0.00295261953809256,12,30.20685363,-2.81184823,1,"Gitega",371.970861628154,517.225357813792,3.07768036750074,5.48837942079862,12,30.20685363,-2.81184823,1,"Gitega",539132.8983569,961427.292990915,3.91090095642373,0.984036203267794,5632.27879119587,1829.6823149594,0.182640092104057,31993.9923755606
"Gihofi",293350.813541338,0.205830823454193,0.21845876586432,0.0016202936244994,0.00254233783586968,13,30.11562611,-3.91875872,1,"Gitega",475.314452922741,745.796872449296,1.94449123302847,4.65223988534645,13,30.11562611,-3.91875872,1,"Gitega",570418.085132901,1364738.35515584,2.97052858629117,0.847669364027332,3543.78640978842,1550.80219515935,0.182562759372834,53554.9339843725
"Gitega",313416.21747821,0.102309811591655,0.154149020404966,0.000656987598869903,0.0013398013392579,14,29.93208819,-3.40581734,1,"Gitega",205.910568167896,419.915467922452,0.998619529645848,3.38810757917661,14,29.93208819,-3.40581734,1,"Gitega",312983.555681471,1061887.86187479,1.2289063242404,0.44653195618049,1868.87963064878,1129.37922665238,0.177971575883262,55779.1781319682
"Giteranyi",453301.276677646,0.124988268073123,0.154571388269524,0.000869527128695372,0.00148171996780177,15,30.39329113,-2.56546547,1,"Gitega",394.15775754346,671.665553083304,1.51867275749999,3.39564718821165,15,30.39329113,-2.56546547,1,"Gitega",688416.299830306,1539251.2055632,1.55834918990567,0.493855669462569,2767.59866747851,1131.88346298139,0.1830449192356,82974.4955788542
"Isale",265730.978365878,0.0187803171895916,0.0617891935388564,0.000296720980535722,0.0007559353101047,16,29.40701752,-3.32222774,1,"Gitega",78.84795645944,200.875429535435,0.148236017811693,1.23511893369394,16,29.40701752,-3.32222774,1,"Gitega",39390.9020421629,328209.362648711,0.544069970770836,0.251967417042222,270.602574848694,411.637028198472,0.18110285233147,48124.6381348925
"Kabezi",241409.508399963,0.0206172707100022,0.0584373566037275,0.000277270105822937,0.000799755798638729,17,29.4070419,-3.49595876,1,"Gitega",66.935639940721,193.068654189395,0.144925854973366,1.1272481878347,17,29.4070419,-3.49595876,1,"Gitega",34986.4794035645,272128.430869925,0.515070551302552,0.266480411520859,269.875015315281,375.720150565946,0.179133229169246,43244.4647918457
"Kayanza",291321.219954611,0.0133481084186793,0.050614369154085,0.00026203052884576,0.000772150689359408,18,29.57431919,-2.89999679,1,"Gitega",76.3350533286986,224.943880812977,0.154204399897684,1.17201748093171,18,29.57431919,-2.89999679,1,"Gitega",44923.013900562,341433.562353156,0.478659445437039,0.257371646869259,284.380904504356,390.630181002825,0.182889462964383,53279.5814676277
"Kibumbu",188272.989460859,0.0825993162533508,0.159242712829919,0.000775833083071364,0.00155262718244155,19,29.75815592,-3.52984716,1,"Gitega",146.068413872481,292.317761156461,0.882468961389989,3.31563600118697,19,29.75815592,-3.52984716,1,"Gitega",166145.069467313,624244.701907519,1.42972794393726,0.51750205519334,1629.79319350464,1105.25486640942,0.179841849311202,33859.3625999893
"Kibuye",229010.83476279,0.0551162505787374,0.115181990778284,0.000577576402317186,0.00133845511759148,20,29.97990171,-3.64488773,1,"Gitega",132.271254033948,306.520723772153,0.655211601888054,2.73374739022268,20,29.97990171,-3.64488773,1,"Gitega",150050.555894648,626057.771865495,1.0435625141083,0.446359457708243,1179.42565449579,911.278903261565,0.184386170532019,42226.4308322518
"Kiganda",181441.287830066,0.108096250450952,0.188318805277443,0.000893582201761139,0.00179386901934064,21,29.7194871,-3.29696221,1,"Gitega",162.132705469567,325.481905067623,0.948384173674924,3.7174520340451,21,29.7194871,-3.29696221,1,"Gitega",172076.045829231,674499.284503641,1.61746854127609,0.597987388288405,1729.21698679036,1239.06829713924,0.183195390717118,33239.207616246
"Kinyinya",335969.532434028,0.350926057699586,0.274252378009864,0.00279292264951331,0.00361721925213654,22,30.41267628,-3.52205978,1,"Gitega",938.336916681394,1215.27546085168,3.50194798012784,5.79858424013264,22,30.41267628,-3.52205978,1,"Gitega",1176547.82549184,1948147.63593669,5.37364614498403,1.20591533609098,6747.92247948222,1932.82721206397,0.173070720679673,58146.4891047701
"Kiremba",294281.031087941,0.357543328333661,0.271162605231357,0.00301792379812874,0.00389426228419353,23,30.02654773,-2.83495738,1,"Gitega",888.117727058162,1146.00752031935,3.44896087767673,5.65354422829224,23,30.02654773,-2.83495738,1,"Gitega",1014963.76326468,1663730.82480312,5.53435622365425,1.29812471885754,6346.63492086024,1884.51271424615,0.180861297290713,53224.0490506137
"Kirundo",256307.246344997,0.342771258339521,0.270547503686095,0.00282194965232726,0.00367142389584104,24,30.06174634,-2.49096793,1,"Gitega",723.286144712222,941.012548908238,3.5633063924444,5.74949727468993,24,30.06174634,-2.49096793,1,"Gitega",913301.249330951,1473637.81434384,5.28434373513739,1.2241201595742,6626.02700054503,1916.54603679658,0.179393252172547,45979.7904772191
"Mabayi",303326.537061169,0.0739235732465631,0.138422419443509,0.000710535124149698,0.00146230251545039,25,29.25327932,-2.76167182,1,"Gitega",215.524158668656,443.555158147404,0.930674916059778,3.27249437310705,25,29.25327932,-2.76167182,1,"Gitega",282298.399418106,992634.385746724,1.28598778496165,0.487397560898972,1683.82733566288,1090.77819472596,0.184358149187906,55920.7189721738
"Makamba",295318.120745996,0.0986789767141159,0.147710288929449,0.000810470197543548,0.00152576755612487,26,29.92731052,-4.1790986,1,"Gitega",239.346535659197,450.586807370008,0.858592425419174,3.12076132815547,26,29.92731052,-4.1790986,1,"Gitega",253557.901561537,921617.370727653,1.5025119286991,0.508544217810637,1589.87249501074,1040.2913748571,0.179855800358555,53114.6769671555
"Matana",269314.261921348,0.014331591120384,0.047864962602148,0.000234736282576636,0.000628031251943641,27,29.69986058,-3.78483474,1,"Gitega",63.2178286882878,169.137773080742,0.104991830570554,0.956342807904423,27,29.69986058,-3.78483474,1,"Gitega",28275.79735788,257556.757454569,0.438618102303458,0.209380687089279,194.865769446467,318.781086675303,0.178247292108997,48004.5379138134
"Mpanda",237180.714274938,0.0928899379141901,0.145694213834043,0.000760080812339861,0.00160175429509333,28,29.3715791,-3.19732191,1,"Gitega",180.276509977443,379.905227803186,0.885150723877266,3.1525831463688,28,29.3715791,-3.19732191,1,"Gitega",209940.680930188,747731.922466884,1.38849337736508,0.534046233572556,1618.01202303744,1050.9040937836,0.181646751843338,43083.1063479253
"Mukenke",165895.919547284,0.317938331059973,0.263711052544459,0.00234496946191059,0.00314865965134126,29,30.2945314,-2.59545461,1,"Gitega",389.020865193958,522.349788200689,3.81879994267382,6.00401876202705,29,30.2945314,-2.59545461,1,"Gitega",633523.328056989,996042.213505624,4.36546009741,1.04978673856455,7123.09324884402,2001.50075414147,0.17852887684341,29617.2121896813
"Muramvya",194198.551247032,0.0165270825414282,0.054932200518995,0.000276559773370581,0.000724608367556115,30,29.59502105,-3.24965852,1,"Gitega",53.7075073217744,140.717895200874,0.119396155816286,1.1005194009273,30,29.59502105,-3.24965852,1,"Gitega",23186.5604839876,213719.273279333,0.520432703744588,0.241601599003643,222.213185904499,366.839451656705,0.17801133683413,34569.5437187355
"Murore",149893.801163942,0.330976480584822,0.266695782722844,0.00308092804218109,0.00399878761676912,31,30.73189158,-3.13601584,1,"Gitega",461.812015355106,599.393475924824,3.36070292199845,5.77159465712041,31,30.73189158,-3.13601584,1,"Gitega",503748.535561115,865126.261933277,5.48268368261776,1.33298751998694,5987.23290141619,1923.89869417748,0.187388031835667,28088.3043844779
"Musema",287439.683206241,0.0592950589111937,0.13698644056912,0.000494106362337374,0.00126252104198587,32,29.68877279,-3.1146423,1,"Gitega",142.025776260443,362.898648349632,0.679224254934891,2.90690081068253,32,29.68877279,-3.1146423,1,"Gitega",195236.00466448,835558.648134551,0.929296429810619,0.420743483232584,1279.12037553736,968.985413331028,0.17712697393279,50913.3212745211
"Mutaho",219384.247581389,0.134706230325143,0.179599878782283,0.00103423686931478,0.00171305145940193,33,29.90982779,-3.2165473,1,"Gitega",226.895277395555,375.816505489092,1.5766573079089,4.13875357659647,33,29.90982779,-3.2165473,1,"Gitega",345893.777189292,907977.3393264,1.92076235166434,0.571100056626988,2926.50624678202,1379.41544618409,0.179984467046347,39485.7568793001
"Muyinga",326814.238908712,0.225898319154087,0.222914307148922,0.001925707798361,0.00280686143928953,34,30.3660234,-2.92732926,1,"Gitega",629.348728481923,917.32228500362,2.23987216177237,4.7569521649859,34,30.3660234,-2.92732926,1,"Gitega",732022.115802448,1554639.70132502,3.58268842540003,0.93575105956552,4168.96941043935,1585.85427554385,0.178954863897857,58484.9976437903
"Ngozi",366595.733529097,0.00812820531779034,0.0166321952782385,0.000186630040391365,0.000352357093547146,35,29.83498123,-2.9455671,1,"Gitega",68.4177765558373,129.172607173097,0.0934343868899669,0.379658117781569,35,29.83498123,-2.9455671,1,"Gitega",34252.6475987689,139181.046178411,0.346954543226221,0.117397711121192,172.579692362225,126.558576966492,0.182445937228776,66883.9021877866
"Nyabikere",282828.083512144,0.12406413368722,0.197135412124633,0.0010175014716348,0.00159293394162656,36,30.10137516,-3.2203545,1,"Gitega",287.777991193257,450.526453871686,1.75531836057367,4.51268820712127,36,30.10137516,-3.2203545,1,"Gitega",496453.32787473,1276314.95710796,1.90060173422025,0.531022966709954,3278.90819869711,1504.19273873399,0.178842286133291,50581.621038009
"Nyanza-Lac",278570.479522085,0.0400321571319244,0.0828539910770699,0.00054856568048925,0.00106067820082987,37,29.69277209,-4.26539196,1,"Gitega",152.814204663249,295.473635023799,0.310920053309372,1.76882236415452,37,29.69277209,-4.26539196,1,"Gitega",86613.1483434239,492741.694171913,1.01135907070602,0.353610432250484,576.053342155235,589.678430840665,0.179546313370484,50016.3026120382
"Rumonge",321456.915315988,0.0431398466082201,0.101156616598161,0.000437616156323866,0.00100428266073654,38,29.48683067,-3.91706212,1,"Gitega",140.674739704309,322.833606225701,0.33071225000447,1.93100384351357,38,29.48683067,-3.91706212,1,"Gitega",106309.739743647,620734.53899919,0.826612075996695,0.334805205602455,622.368590419591,643.646913944495,0.17713929573254,56942.6515874289
"Rutana",205251.159437843,0.0676467258737747,0.138756350640965,0.000722550223006378,0.00153603212278714,39,30.06662123,-3.8161435,1,"Gitega",148.304271024131,315.272374135831,0.765849876124698,3.37027152808324,39,30.06662123,-3.8161435,1,"Gitega",157191.575029923,691752.138759436,1.32620431470321,0.511949536020737,1414.60690406581,1123.43214192589,0.18061448805738,37071.3330850497
"Ruyigi",118387.887266573,0.050736402379734,0.103977925377811,0.000599858560480445,0.0012139885318048,40,30.33466786,-3.36084579,1,"Gitega",71.0159876340476,143.721537446219,0.566423427377202,2.44159942577433,40,30.33466786,-3.36084579,1,"Gitega",67057.6728654781,289055.797568701,1.12138859750358,0.404643896967905,1048.91191752586,814.002158500439,0.180132868376855,21325.5497144035
"Rwibaga",145042.126181624,0.00993322821762828,0.0351178379870138,0.000157244234233181,0.000462266453564229,41,29.51608705,-3.49770267,1,"Gitega",22.8070380629818,67.0481092873948,0.0744042628756269,0.726511600795348,41,29.51608705,-3.49770267,1,"Gitega",10791.7524844574,105374.787274973,0.30319642085474,0.154098631182726,143.767234381963,242.16513263643,0.176494002104084,25599.0653234803
"Ryansoro",170536.623649706,0.0238884318706184,0.0633655461066187,0.000318705833710825,0.000787962106638106,42,29.83676162,-3.63821585,1,"Gitega",54.3510168185087,134.376397229972,0.220677637358236,1.5023135715147,42,29.83676162,-3.63821585,1,"Gitega",37633.6191900678,256199.484149248,0.604622221581789,0.262665909969414,415.046451336092,500.814399825156,0.176789044790277,30149.0067967905
"Vumbi",220988.71850429,0.371244267330928,0.277313202366534,0.00316486843213262,0.00407370794127242,43,30.03599031,-2.63887858,1,"Gitega",699.400219051669,900.243497502542,3.55589629134543,5.65305118886792,43,30.03599031,-2.63887858,1,"Gitega",785812.964558585,1249260.53786707,5.89109591136752,1.35780912144569,6597.5984184614,1884.28936701099,0.179619946811008,39693.9818635734
"Zone Centre",199380.71284912,0.0138835495842457,0.0391012861270036,0.000181224357303404,0.000452480518560779,44,29.37230714,-3.38340592,1,"Gitega",36.1326415447762,90.2158883409875,0.089594898469855,0.828509359447948,44,29.37230714,-3.38340592,1,"Gitega",17863.4947245642,165188.7866889,0.33340447906985,0.150876744171858,166.029132811076,276.165231478639,0.181372042232701,36162.0870712565
"Zone Nord",399973.723313687,0.00241894035588566,0.00771592884446817,5.13470315961841e-05,0.000107787047957539,45,29.36498583,-3.33939272,1,"Gitega",20.5374634086313,43.1119868965677,0.0176679921137166,0.186888084351416,45,29.36498583,-3.33939272,1,"Gitega",7066.73258920007,74750.3229409981,0.0960646639946424,0.0359270629406892,33.6061381759336,62.2939887832154,0.173477699716055,69386.5214673243
"Zone Sud",196759.332384998,0.0210237405809792,0.0565818578848495,0.000246009301451093,0.00076787637013807,46,29.35966899,-3.43755751,1,"Gitega",48.4046259140169,151.086841942582,0.127474157439069,1.14394907484538,46,29.35966899,-3.43755751,1,"Gitega",25081.7301140514,225082.656249014,0.46158889562854,0.255933184796007,240.218080759273,381.295394322797,0.176898786646647,34806.4871603105
