"admin_name","pop_size","pfpr_u5","pfpr_all","mortality_pp_u5","mortality_pp_all","node_id.x","lon.x","lat.x","cluster_id.x","seasonality_archetype.x","deaths_u5","deaths_all","cases_pp_u5","cases_pp_all","node_id.y","lon.y","lat.y","cluster_id.y","seasonality_archetype.y","clinical_cases_u5","clinical_cases_all","mortality_rate_u5","mortality_rate_all","incidence_u5","incidence_all","frac_u5","pop_size_u5"
"Bubanza",201303.876182995,0.144187981060878,0.191177242812297,0.00127075478022228,0.00205497582423548,1,29.42838636,-3.04668647,1,"Gitega",255.807862936816,413.674598880947,1.3402477862781,3.92644153723174,1,29.42838636,-3.04668647,1,"Gitega",269797.07442346,790407.901050666,2.3634901854345,0.68493322828871,2491.09120679033,1308.87592113261,0.179419842669351,36117.9097934836
"Bugarama",195016.1571555,0.0244130035073836,0.0630826887467265,0.000269827771717575,0.000723782361448743,2,29.4303905,-3.72944816,1,"Gitega",52.6207751341931,141.149254746667,0.122330179974751,1.15870352951737,2,29.4303905,-3.72944816,1,"Gitega",23856.3616028167,225965.909608992,0.512434716258042,0.241274405928585,228.481934525109,386.214313955361,0.178438865558079,34798.4618483234
"Buhiga",277009.19890515,0.0947701414596887,0.167636181984424,0.000788219224416381,0.00156087511990368,3,30.1393365,-3.0502219,1,"Gitega",218.34397591722,432.376766555498,1.04933063955973,3.63488827070984,3,30.1393365,-3.0502219,1,"Gitega",290674.239851069,1006897.48797906,1.46147247738612,0.520165711528603,1956.69032208442,1211.58490126388,0.178847168936091,49542.3109934407
"Bururi",161565.439110322,0.075470293574045,0.154368090322169,0.000918015314932172,0.00186193703457394,4,29.64527524,-4.00189913,1,"Gitega",148.319547467017,300.824674586709,0.406159259210087,2.81839381870294,4,29.64527524,-4.00189913,1,"Gitega",65621.2990630008,455355.034904557,1.72735093650373,0.620575441990616,768.197783864224,939.465982711391,0.176863161644638,28574.9743735558
"Busoni",218791.205835172,0.375152437999234,0.27871419411508,0.00318291827095206,0.00415197213098269,5,30.25180248,-2.47173859,1,"Gitega",696.394526576403,908.414989131731,3.10567060955231,5.25501420832131,5,30.25180248,-2.47173859,1,"Gitega",679493.417590803,1149750.89531958,5.74958540995892,1.38388139664962,5612.64515808042,1751.59822281836,0.184604272957708,40389.7914827422
"Butezi",125726.232208091,0.275898120628411,0.246651114670196,0.00229112607022809,0.00320609847139286,6,30.17161805,-3.44652457,1,"Gitega",288.054648323508,403.090680896344,2.32140803452116,4.72787534711671,6,30.17161805,-3.44652457,1,"Gitega",291861.885597935,594417.953742505,4.16853975952719,1.06867916001261,4216.9596658658,1575.94253977124,0.183143547446886,23025.9481737207
"Buye",194429.100944065,0.172081336010361,0.204501820673299,0.00156722784285871,0.00245208066538407,7,29.8634721,-2.84840217,1,"Gitega",304.714700461526,476.755839212949,1.67934455943223,4.31535435129212,7,29.8634721,-2.84840217,1,"Gitega",326513.452865716,839030.466776786,2.9117881158016,0.81737712708693,3116.20662793602,1438.46692008645,0.179565797223074,34912.8165143866
"Cankuzo",179215.356633093,0.165161983626569,0.218882519691948,0.00143898239651192,0.00232320518043032,8,30.52891483,-3.14505865,1,"Gitega",257.887743379627,416.354044942669,1.83080829308657,4.86468908984724,8,30.52891483,-3.14505865,1,"Gitega",328108.961172334,871826.990146089,2.65461248202068,0.774340063891158,3376.03567618726,1621.52811800591,0.180575105023094,32361.8318457721
"Cibitoke",305498.934537512,0.15831514047381,0.195905329275935,0.00132248881324558,0.0021502049741438,9,29.19244319,-2.90271457,1,"Gitega",404.018923384303,656.885328638191,1.34732933496211,3.81215850475832,9,29.19244319,-2.90271457,1,"Gitega",411607.67630206,1164610.36149178,2.40444295719509,0.716702249750226,2469.86766708529,1270.59389965,0.182033731410252,55611.1109957197
"Fota",170992.624432377,0.0428252213401806,0.115429457979975,0.000408065432750235,0.00117505150239139,10,29.67894889,-3.45736142,1,"Gitega",69.7761792860964,200.925140237112,0.361704386653179,2.52556416012825,10,29.67894889,-3.45736142,1,"Gitega",61848.7823425304,431852.843912681,0.770760349503926,0.391752424188014,681.187192357938,841.857157575448,0.177068256510395,30277.3658843778
"Gahombo",256161.000799576,0.0880391199467818,0.153574259605687,0.00079331538403959,0.00150209566519735,11,29.74184956,-3.01315344,1,"Gitega",203.216462725281,384.778328893659,0.863376829538867,3.1514474313326,11,29.74184956,-3.01315344,1,"Gitega",221163.472721841,807277.927977411,1.47223656738567,0.500460681907717,1610.1157216868,1050.39356353626,0.177803125986101,45546.2266978928
"Gashoho",175175.077974295,0.295354005479067,0.254657950822395,0.0022794564596352,0.00304889878955283,12,30.20685363,-2.81184823,1,"Gitega",399.303963055607,534.091083195651,2.9706001367999,5.33540651969436,12,30.20685363,-2.81184823,1,"Gitega",520375.110594373,934630.253112022,4.24911568484421,1.01614758076243,5542.11084294094,1778.49412378747,0.179195350270325,31390.5594562353
"Gihofi",293350.813541338,0.235144084199581,0.236790756889163,0.00176086324088498,0.00254969381616302,13,30.11562611,-3.91875872,1,"Gitega",516.550664248646,747.95475525274,1.9451311165882,4.62362332225302,13,30.11562611,-3.91875872,1,"Gitega",570605.795495719,1356343.66309163,3.17872680997769,0.849711225371074,3503.53747245283,1541.00153113592,0.184591700866982,54150.1256223084
"Gitega",313416.21747821,0.125653973821399,0.17583054845496,0.000895377793117064,0.00168381445960022,14,29.93208819,-3.40581734,1,"Gitega",280.625921132738,527.734758863017,1.06452702403875,3.53939025357018,14,29.93208819,-3.40581734,1,"Gitega",333640.033277562,1109302.30545321,1.64076527430137,0.561313802940106,1962.88132139142,1179.78696304789,0.180551688304756,56587.8272077813
"Giteranyi",453301.276677646,0.246438495344444,0.242917525333333,0.00188273948113334,0.00254966648104565,15,30.39329113,-2.56546547,1,"Gitega",853.448210449154,1155.76707096019,2.50366240477292,5.06572044364451,15,30.39329113,-2.56546547,1,"Gitega",1134913.36445339,2296297.54439611,3.50915211108384,0.84988823864153,4654.75256682953,1688.51380975122,0.179576193313972,81402.1176901351
"Isale",265730.978365878,0.0477874779911111,0.127160603711111,0.00052692253717556,0.00141071315377085,16,29.40701752,-3.32222774,1,"Gitega",140.019641326692,374.870186545141,0.311534045899169,2.55478051057256,16,29.40701752,-3.32222774,1,"Gitega",82784.2468110666,678884.324584525,0.973367346784576,0.470297928599667,574.30196054803,851.595181879054,0.180471857157005,47956.963169838
"Kabezi",241409.508399963,0.0559863374294444,0.128358870208089,0.000528664336366974,0.00140961972130777,17,29.4070419,-3.49595876,1,"Gitega",127.624597550944,340.295603951801,0.321891505695107,2.47972740221215,17,29.4070419,-3.49595876,1,"Gitega",77707.6701479797,598629.773133953,1.00110958226446,0.469725490566923,599.20457206541,826.596773932431,0.178939298880213,43197.6481761062
"Kayanza",291321.219954611,0.0154158085092222,0.0498570234267889,0.000232531756422011,0.000604720226678317,18,29.57431919,-2.89999679,1,"Gitega",67.7414349590488,176.167834167156,0.156647435494785,1.12554551197399,18,29.57431919,-2.89999679,1,"Gitega",45634.7220111019,327895.291662698,0.438199647298434,0.201560092729867,295.388439117404,375.164808702735,0.180011044571534,52441.0371098831
"Kibumbu",188272.989460859,0.129354992166667,0.206385868855556,0.000946497556134941,0.00185096959568839,19,29.75815592,-3.52984716,1,"Gitega",178.199924410923,348.487579181411,1.198320913128,4.23588410218863,19,29.75815592,-3.52984716,1,"Gitega",225611.460648075,797502.56292878,1.74828982798629,0.617010529040697,2199.89533993757,1411.97796933886,0.181806318196904,34229.2190298033
"Kibuye",229010.83476279,0.0718945849733333,0.137409293833333,0.000619475498128751,0.0013803286048684,20,29.97990171,-3.64488773,1,"Gitega",141.86660094156,316.110206047869,0.733432439521049,2.9778363385604,20,29.97990171,-3.64488773,1,"Gitega",167963.975216825,681956.785680687,1.13975139125172,0.460106326218247,1343.25567261441,992.63295466115,0.181919517880429,41661.5406494413
"Kiganda",181441.287830066,0.168867857105556,0.240346967344444,0.00139713897342019,0.00255267295699367,21,29.7194871,-3.29696221,1,"Gitega",253.498694614935,463.160268725915,1.22928382114395,4.65561089506268,21,29.7194871,-3.29696221,1,"Gitega",223042.839617023,844720.036435858,2.54352278995583,0.850843654149989,2252.0145068984,1551.84172739334,0.182626151760195,33135.9241668188
"Kinyinya",335969.532434028,0.382702851666667,0.283964244222222,0.00325104874621419,0.00411907690821727,22,30.41267628,-3.52205978,1,"Gitega",1092.25332718581,1383.88434291356,3.40035877092636,5.58813757599898,22,30.41267628,-3.52205978,1,"Gitega",1142416.94637608,1877443.9685854,6.16244865641924,1.37318590724065,6472.03364459415,1862.76141182213,0.175547312175242,58978.5483915663
"Kiremba",294281.031087941,0.388030347888889,0.283091686111111,0.00334728283858018,0.00421420192511139,23,30.02654773,-2.83495738,1,"Gitega",985.041845080345,1240.15968773457,3.27684559287174,5.43054804093502,23,30.02654773,-2.83495738,1,"Gitega",964313.49978627,1598107.27685896,6.22822822962412,1.4048769990141,6073.12519820399,1810.30369346434,0.179688046358987,52878.7835567003
"Kirundo",256307.246344997,0.365259051888889,0.278609565555556,0.00317207753537806,0.00399781824195,24,30.06174634,-2.49096793,1,"Gitega",813.026458285576,1024.669784982,3.41507030433312,5.53147930897407,24,30.06174634,-2.49096793,1,"Gitega",875307.265778192,1417758.22989747,5.89551279271651,1.33275837076053,6356.80312444961,1843.84535924433,0.179058588136018,45894.0136595657
"Mabayi",303326.537061169,0.0876621592388889,0.154759186355556,0.000856706846434822,0.00155829855086135,25,29.25327932,-2.76167182,1,"Gitega",259.861921005669,472.673303140211,0.97074310556735,3.35140452967362,25,29.25327932,-2.76167182,1,"Gitega",294452.144587749,1016569.93027701,1.56956979874305,0.51936348583673,1775.97205000322,1117.12322275986,0.182087650983503,55232.0166144286
"Makamba",295318.120745996,0.124829197115556,0.169396958788889,0.0010167949278265,0.00182253581541224,26,29.92731052,-4.1790986,1,"Gitega",300.277967269784,538.227851999815,0.924584147359472,3.25046563003752,26,29.92731052,-4.1790986,1,"Gitega",273046.452869738,959921.401412129,1.8574825572542,0.607575486562288,1683.32282303298,1083.6467386598,0.182770915769963,53975.5633722103
"Matana",269314.261921348,0.0405163260972222,0.105879358256556,0.000424666681229225,0.00129243860226469,27,29.69986058,-3.78483474,1,"Gitega",114.368793817837,348.072148247573,0.248406466790296,2.13497180180673,27,29.69986058,-3.78483474,1,"Gitega",66899.4042601183,574978.355026469,0.778928782093141,0.430883504854279,457.652610446224,711.680727764052,0.178829703648481,48161.3896477041
"Mpanda",237180.714274938,0.120051478854444,0.1700160783,0.00109180516137481,0.00187201027145327,28,29.3715791,-3.19732191,1,"Gitega",258.95512802394,444.004733313307,0.979592778661758,3.35848459822265,28,29.3715791,-3.19732191,1,"Gitega",232340.514941567,796567.775887825,1.97160771861055,0.623869059147682,1778.97210164852,1119.50724758283,0.183091827888485,43425.8505164949
"Mukenke",165895.919547284,0.336521749111111,0.270889667777778,0.00271282424823594,0.00348399228716059,29,30.2945314,-2.59545461,1,"Gitega",450.046473231271,577.980104174151,3.79043619461807,5.90496279684958,29,30.2945314,-2.59545461,1,"Gitega",628817.897991473,979609.233075863,4.95908955356429,1.1615230167731,6913.64628783152,1968.32071722445,0.182930867536101,30347.4844834839
"Muramvya",194198.551247032,0.0438954685816667,0.116257212854444,0.000546196514047812,0.00143901671359959,30,29.59502105,-3.24965852,1,"Gitega",106.070571724264,279.454961001305,0.263593199267811,2.3621026797393,30,29.59502105,-3.24965852,1,"Gitega",51189.4174163791,458716.918302105,1.03023423624131,0.479918742363925,494.806125407324,787.373390930973,0.177663891513052,34502.0703407446
"Murore",149893.801163942,0.360177190888889,0.277381182333333,0.00294915244354402,0.00378526750655224,31,30.73189158,-3.13601584,1,"Gitega",442.059669974742,567.388134979473,3.12563316965881,5.44299564739202,31,30.73189158,-3.13601584,1,"Gitega",468513.036844259,815871.307306382,5.38055927271215,1.26174491505621,5711.31968260155,1814.28525049793,0.182133794539451,27300.7267839307
"Musema",287439.683206241,0.0660626871785556,0.136266867944444,0.00057361883599383,0.0011590779303972,32,29.68877279,-3.1146423,1,"Gitega",164.880816499199,333.164993124717,0.671189287159787,2.85139831597218,32,29.68877279,-3.1146423,1,"Gitega",192926.436072632,819605.028637854,1.08872002832565,0.386387696632866,1274.56187288516,950.430128811024,0.175215437481649,50363.8698425681
"Mutaho",219384.247581389,0.155647980674444,0.1953592852,0.00133356353230813,0.00204843856840916,33,29.90982779,-3.2165473,1,"Gitega",292.562832137398,449.395154047141,1.63481138268444,4.1747785547578,33,29.90982779,-3.2165473,1,"Gitega",358651.865127716,915880.652054459,2.46452182014701,0.682757346834224,2995.38232721061,1391.48253964732,0.18147356413831,39812.4413243961
"Muyinga",326814.238908712,0.267090745855556,0.243540787777778,0.00226487460391958,0.00315287110308124,34,30.3660234,-2.92732926,1,"Gitega",740.193269903647,1030.40316993077,2.30571239046857,4.80594061046759,34,30.3660234,-2.92732926,1,"Gitega",753539.640033371,1570649.82285044,4.17604917610798,1.05124165337766,4269.52631308484,1601.96516641533,0.180117594237917,58864.9944749332
"Ngozi",366595.733529097,0.111625154633333,0.173397781422222,0.000991008853235504,0.00184032913099579,35,29.83498123,-2.9455671,1,"Gitega",363.299617485699,674.656807712368,1.08255510192725,3.68368511557776,35,29.83498123,-2.9455671,1,"Gitega",396860.081676685,1350423.24703544,1.80628622654378,0.613514468369095,1945.24380985669,1227.89044914495,0.185978828199719,68179.0449447579
"Nyabikere",282828.083512144,0.131023473022222,0.198031009288889,0.00101276569070953,0.00178433015808662,36,30.10137516,-3.2203545,1,"Gitega",286.438579350229,504.658678964559,1.73991032971454,4.49407862668587,36,30.10137516,-3.2203545,1,"Gitega",492095.504036147,1271051.64513845,1.87989224132492,0.594699877421088,3227.15419612153,1498.10927501854,0.180208767871444,50968.1004491654
"Nyanza-Lac",278570.479522085,0.0624540651391111,0.112056377041111,0.000592687191541268,0.00128189246485325,37,29.69277209,-4.26539196,1,"Gitega",165.105155154249,357.097398629916,0.413331943590344,2.18077032831411,37,29.69277209,-4.26539196,1,"Gitega",115142.077727758,607498.236085995,1.07811483216524,0.427231864354836,747.898551714328,726.874411960763,0.184859464176934,51496.3895799642
"Rumonge",321456.915315988,0.0505227781824444,0.101552217520111,0.000622764721766124,0.0012621772425613,38,29.48683067,-3.91706212,1,"Gitega",200.192026426558,405.735602975796,0.322324674705192,1.90375143342631,38,29.48683067,-3.91706212,1,"Gitega",103613.49566096,611974.063317611,1.16452120261209,0.420541292328639,606.219616791093,634.539917995058,0.177294601083359,56992.5755664351
"Rutana",205251.159437843,0.0847518291022222,0.161186484766667,0.000855124623823067,0.00165574571249503,39,30.06662123,-3.8161435,1,"Gitega",175.515320503534,339.843727223841,0.831569726254765,3.57613062743896,39,30.06662123,-3.8161435,1,"Gitega",170680.6504672,734004.957583028,1.59776845119218,0.551903534682472,1545.7281403235,1192.08717834302,0.179179943990654,36776.8912520895
"Ruyigi",118387.887266573,0.0663133410652222,0.125230661406667,0.000659775236949377,0.00131714897395371,40,30.33466786,-3.36084579,1,"Gitega",78.1093963732393,155.934484241714,0.641638927245756,2.69024622634431,40,30.33466786,-3.36084579,1,"Gitega",75962.2769846154,318492.566963774,1.21406957312664,0.439024211886988,1188.71459255116,896.77268158059,0.180462259427943,21364.5456250264
"Rwibaga",145042.126181624,0.0275421034093333,0.0767262920492889,0.000301374663960708,0.000931366164409448,41,29.51608705,-3.49770267,1,"Gitega",43.7120220381335,135.08732873957,0.183642217509141,1.64464135106751,41,29.51608705,-3.49770267,1,"Gitega",26635.857684234,238542.278365051,0.56289598043134,0.310420995233083,341.599182109885,548.174481759583,0.179060830429318,25971.3635613155
"Ryansoro",170536.623649706,0.0404829895405556,0.0936131840966667,0.000386344614752625,0.00102238404076994,42,29.83676162,-3.63821585,1,"Gitega",65.885906165159,174.353922386248,0.308166213358631,2.04688698932862,42,29.83676162,-3.63821585,1,"Gitega",52553.6255490959,349069.196152615,0.727268404328639,0.340689472388443,579.374547255161,682.295983044755,0.176858415621492,30160.8370641256
"Vumbi",220988.71850429,0.398968598222222,0.287559087888889,0.0032611912127582,0.00416761826612748,43,30.03599031,-2.63887858,1,"Gitega",720.686466904886,920.996619846583,3.41409798161618,5.44456530758313,43,30.03599031,-2.63887858,1,"Gitega",754477.137805443,1203187.51013571,6.03915836623141,1.38966111983962,6311.99688626114,1814.9551417756,0.180288123750305,39841.6414291227
"Zone Centre",199380.71284912,0.0360764623506667,0.0992836453296222,0.000459270748751273,0.00116550524725823,44,29.37230714,-3.38340592,1,"Gitega",91.5697292767779,232.379267027736,0.239348762472338,2.16673369057838,44,29.37230714,-3.38340592,1,"Gitega",47721.5268812894,432004.907781722,0.842836090834429,0.388487233626356,437.460333413155,722.272343700667,0.18112248535656,36112.3302433953
"Zone Nord",399973.723313687,0.00547829145722222,0.0198666869921444,7.47142772822083e-05,0.000217863581141519,45,29.36498583,-3.33939272,1,"Gitega",29.8837476692561,87.1397077236268,0.0409193519730184,0.486542438853543,45,29.36498583,-3.33939272,1,"Gitega",16366.6655642315,194604.190818373,0.14189740642455,0.0725940009983802,76.9513704806313,162.175016392082,0.17823503153126,71289.3291864903
"Zone Sud",196759.332384998,0.0446315919714444,0.119650915473878,0.000548985792909381,0.00136012938676546,46,29.35966899,-3.43755751,1,"Gitega",108.018078101699,267.618150097188,0.279867058992334,2.4974801333494,46,29.35966899,-3.43755751,1,"Gitega",55066.4556838844,491402.523682623,1.01561130072355,0.453324644742063,516.982233663778,832.510133009673,0.180164775916811,35449.1010286846
