"admin_name","pop_size","pfpr_u5","pfpr_all","mortality_pp_u5","mortality_pp_all","node_id.x","lon.x","lat.x","cluster_id.x","seasonality_archetype.x","deaths_u5","deaths_all","cases_pp_u5","cases_pp_all","node_id.y","lon.y","lat.y","cluster_id.y","seasonality_archetype.y","clinical_cases_u5","clinical_cases_all","mortality_rate_u5","mortality_rate_all","incidence_u5","incidence_all","frac_u5","pop_size_u5"
"Bubanza",201303.876182995,0.119220678487693,0.177425169892295,0.000846125582490194,0.00156836480192983,1,29.42838636,-3.04668647,1,"Gitega",170.328359492871,315.71791389745,1.32672757458749,3.79172481057142,1,29.42838636,-3.04668647,1,"Gitega",267075.403403325,763288.901787259,1.55022391795792,0.52250474457617,2425.32042354463,1263.8413819859,0.182376193686174,36713.0347125274
"Bugarama",195016.1571555,0.00287411869320747,0.0120574466449966,5.28712649877005e-05,0.000154453772862158,2,29.4303905,-3.72944816,1,"Gitega",10.3107509218515,30.1209812417464,0.033937316468247,0.293762924245587,2,29.4303905,-3.72944816,1,"Gitega",6618.32504180758,57288.5166011366,0.0944286324278991,0.0514620905360082,62.7695993918691,97.9473093547487,0.180465804252449,35193.7476432893
"Buhiga",277009.19890515,0.0872240041805849,0.156639649268366,0.000697229836306128,0.00139187346348735,3,30.1393365,-3.0502219,1,"Gitega",193.13907840793,385.561753097968,0.993717838815534,3.44938790137481,3,30.1393365,-3.0502219,1,"Gitega",275268.982468048,955512.179272954,1.29373377631725,0.463863741259767,1842.21931762619,1149.71453713809,0.180420777353859,49978.215000637
"Bururi",161565.439110322,0.00752633555934731,0.0294586689890871,9.02351329208458e-05,0.000318291628478581,4,29.64527524,-4.00189913,1,"Gitega",14.5788788735347,51.4249267202814,0.0897129863709623,0.667708077007837,4,29.64527524,-4.00189913,1,"Gitega",14494.5180369229,107878.54865928,0.166291974870235,0.10612038497297,165.239307689493,222.574637094246,0.181978834127615,29401.4902446125
"Busoni",218791.205835172,0.333255932041344,0.267050248317438,0.00254443986490601,0.00322591920314439,5,30.25180248,-2.47173859,1,"Gitega",556.701066217869,705.802752382798,3.26887976263353,5.40667952164949,5,30.25180248,-2.47173859,1,"Gitega",715202.14499678,1182933.93210602,4.63662990240592,1.0751632072831,5952.8240142011,1802.17735071856,0.183554524503557,40160.115752635
"Butezi",125726.232208091,0.235878896924002,0.231264002400812,0.00169743901997901,0.00235382827664692,6,30.17161805,-3.44652457,1,"Gitega",213.412612384955,295.937960487681,2.37257991984411,4.7351959710432,6,30.17161805,-3.44652457,1,"Gitega",298295.533934575,595338.348206195,3.15303775184838,0.784520653088242,4387.20169394532,1578.41736394253,0.180891655670023,22742.8263052754
"Buye",194429.100944065,0.129307985746082,0.174667059706948,0.000994862158049571,0.00171835611324359,7,29.8634721,-2.84840217,1,"Gitega",193.43015495285,334.098434199689,1.41810695541888,3.7326550900766,7,29.8634721,-2.84840217,1,"Gitega",275721.260384618,725736.773297881,1.80651925380843,0.572777534629671,2586.34685104808,1244.03048136464,0.182104193301374,35406.3545817304
"Cankuzo",179215.356633093,0.164934424148928,0.217482150879471,0.00113514674569282,0.00195964911453516,8,30.52891483,-3.14505865,1,"Gitega",203.435728860234,351.199214937144,1.80238546741236,4.75138302114151,8,30.52891483,-3.14505865,1,"Gitega",323015.154332609,851520.802634298,2.11287548431841,0.653321604219005,3365.53487202512,1583.80333073856,0.178237455987644,31942.8892402008
"Cibitoke",305498.934537512,0.120214014789443,0.176437607151026,0.000936762500047113,0.00152024692184395,9,29.19244319,-2.90271457,1,"Gitega",286.179945679089,464.433814857259,1.31608901568712,3.68107038732415,9,29.19244319,-2.90271457,1,"Gitega",402063.792048937,1124563.08128511,1.74099627609394,0.506907852088367,2430.57898566309,1227.14258701351,0.180824162951787,55241.5891204084
"Fota",170992.624432377,0.0100306269147646,0.03651837779933,0.000144197960187619,0.000302603594728725,10,29.67894889,-3.45736142,1,"Gitega",24.6567876502765,51.7429828253361,0.118104198832933,0.855123847468018,10,29.67894889,-3.45736142,1,"Gitega",20194.9469149265,146219.870893268,0.264391995383728,0.100822938211616,219.650498127594,285.038974708923,0.17841396428284,30507.4719881071
"Gahombo",256161.000799576,0.0679806504444815,0.130955719366535,0.000543312700730867,0.001118798886477,11,29.74184956,-3.01315344,1,"Gitega",139.175525166339,286.592642453399,0.759191283716892,2.80611923230288,11,29.74184956,-3.01315344,1,"Gitega",194475.199035234,718818.310909644,1.02198799396863,0.372892816184346,1427.3037290204,935.411951452615,0.176940452935796,45325.2435059638
"Gashoho",175175.077974295,0.274484364337822,0.243054345708238,0.00208204370691979,0.00289887454485709,12,30.20685363,-2.81184823,1,"Gitega",364.722168705564,507.81057443304,2.73594386970376,4.97961736695909,12,30.20685363,-2.81184823,1,"Gitega",479269.180708651,872304.860539212,3.90762473573805,0.966042956050178,5146.85116805476,1659.74785141223,0.177581288525862,31107.8160642937
"Gihofi",293350.813541338,0.191063614942445,0.217680203093154,0.00159455845427731,0.00221956117482899,13,30.11562611,-3.91875872,1,"Gitega",467.765019801468,651.110076340853,2.03454563530716,4.64079321760352,13,30.11562611,-3.91875872,1,"Gitega",596835.617304333,1361380.46586111,2.89932574277605,0.7398744211829,3676.52809125755,1546.94094697011,0.184263499898366,54053.8476011598
"Gitega",313416.21747821,0.087479261855682,0.149282249667807,0.000616369608848479,0.00123301769971596,14,29.93208819,-3.40581734,1,"Gitega",193.180231373814,386.447743528659,1.01249265949265,3.23674432399568,14,29.93208819,-3.40581734,1,"Gitega",317331.61956264,1014448.16297079,1.11447033344523,0.410941396806017,1831.59282225314,1078.83407890365,0.184283477192505,57757.430365407
"Giteranyi",453301.276677646,0.140366136951032,0.1680460897031,0.000971605813836725,0.00148503381863103,15,30.39329113,-2.56546547,1,"Gitega",440.430155839611,673.167725894925,1.51411904427553,3.38941235135777,15,30.39329113,-2.56546547,1,"Gitega",686352.095812033,1536424.94605746,1.81736735372164,0.495021338048739,2821.4418919962,1129.80495042298,0.179531638425983,81381.9209025274
"Isale",265730.978365878,0.00543525365569549,0.0248051264374992,0.000106591909289675,0.000356690326443238,16,29.40701752,-3.32222774,1,"Gitega",28.3247723414322,94.7836694194062,0.0664296502649533,0.586851107924375,16,29.40701752,-3.32222774,1,"Gitega",17652.4159574091,155944.519063844,0.201735392972022,0.118883304046763,123.188433533986,195.657465228625,0.178091589457393,47324.4523052474
"Kabezi",241409.508399963,0.00527287171101755,0.019990510820552,7.29630047152509e-05,0.000255672527976986,17,29.4070419,-3.49595876,1,"Gitega",17.6139630996929,61.7217792902999,0.0609135841044609,0.465673075150096,17,29.4070419,-3.49595876,1,"Gitega",14705.1183935377,112417.908147084,0.135754261491736,0.0852343228703631,112.975739460989,155.229046423915,0.181388535671305,43788.9172257989
"Kayanza",291321.219954611,0.0093314055640436,0.0351565918662466,0.000154023206632467,0.000392965982009783,18,29.57431919,-2.89999679,1,"Gitega",44.8702284574915,114.479329279752,0.109820880510865,0.843636881515961,18,29.57431919,-2.89999679,1,"Gitega",31993.1528869148,245769.325521933,0.289971295743053,0.131069337630986,206.533005968855,281.247278699199,0.178295291542926,51941.2018444481
"Kibumbu",188272.989460859,0.0628594325697991,0.125832816703303,0.00045446359687488,0.00105484774063937,19,29.75815592,-3.52984716,1,"Gitega",85.5632199847684,198.599337556208,0.720650051317898,2.76072869365261,19,29.75815592,-3.52984716,1,"Gitega",135678.939516742,519770.64424435,0.838945934394916,0.351615254917791,1326.81254231034,920.257436520493,0.18164895813457,34199.5923804459
"Kibuye",229010.83476279,0.0590610225289784,0.126418555992083,0.000490577007183522,0.00110086084416984,20,29.97990171,-3.64488773,1,"Gitega",112.34744993053,252.109060881004,0.698204407445831,2.81033333260456,20,29.97990171,-3.64488773,1,"Gitega",159896.374184229,643596.782461463,0.898618657852662,0.366970455949271,1272.9530715558,936.794205462864,0.182776373120669,41857.7697832797
"Kiganda",181441.287830066,0.0666202460196225,0.13979199420318,0.000591052969424429,0.0012303605704926,21,29.7194871,-3.29696221,1,"Gitega",107.241411948153,223.238206405512,0.779276729261123,3.17186691000546,21,29.7194871,-3.29696221,1,"Gitega",141392.97333314,575507.616976963,1.08205678709232,0.410009951832229,1422.94944248381,1057.23928026069,0.183044416079348,33211.8145835394
"Kinyinya",335969.532434028,0.36217999072441,0.277916578838245,0.00259219379727361,0.00333431946912144,22,30.41267628,-3.52205978,1,"Gitega",870.898138048403,1120.22975302641,3.41428695904082,5.57427616084467,22,30.41267628,-3.52205978,1,"Gitega",1147096.39322454,1872786.95541713,4.96652602099574,1.11137971917983,6555.12843767085,1858.04997314904,0.173925434686304,58433.6469699426
"Kiremba",294281.031087941,0.341011144968704,0.266133629077345,0.00251735039590882,0.00337028162397947,23,30.02654773,-2.83495738,1,"Gitega",740.808470117684,991.809951361418,3.31439383112077,5.3927492426127,23,30.02654773,-2.83495738,1,"Gitega",975363.234053731,1586983.80751478,4.68475359041431,1.12271952710122,6134.24125655495,1797.53483435859,0.179733274691226,52892.0933969462
"Kirundo",256307.246344997,0.358666707857888,0.276122203667805,0.00276994699497916,0.00353130193573981,24,30.06174634,-2.49096793,1,"Gitega",709.957486804708,905.098275162228,3.39517159335391,5.47557004902894,24,30.06174634,-2.49096793,1,"Gitega",870207.081961297,1403428.28143575,5.19954861858328,1.17728598589503,6387.96094097194,1825.16167313164,0.177182210433588,45413.0844575529
"Mabayi",303326.537061169,0.0812957600583646,0.150251713255849,0.000662034110510322,0.00132512842348468,25,29.25327932,-2.76167182,1,"Gitega",200.812514157467,401.946615856934,0.957738272654889,3.28153493994285,25,29.25327932,-2.76167182,1,"Gitega",290507.433655353,995376.629578095,1.18847769322785,0.44144219567107,1732.85251705119,1093.72235219162,0.184533014786729,55973.760348716
"Makamba",295318.120745996,0.0745814589079055,0.138737554899116,0.0005807504026395,0.00125849392638782,26,29.92731052,-4.1790986,1,"Gitega",171.506117529978,371.656061311102,0.862149454615249,3.0081833044195,26,29.92731052,-4.1790986,1,"Gitega",254608.356739161,888371.040320646,1.07131994551737,0.419586204785538,1579.44595081703,1002.79644126977,0.182289667011876,53833.4418933606
"Matana",269314.261921348,0.00389196196792633,0.0173839273698086,5.50982165226493e-05,0.000202286031343333,27,29.69986058,-3.78483474,1,"Gitega",14.8387355159799,54.4785132282285,0.0479362616128308,0.441145654128944,27,29.69986058,-3.78483474,1,"Gitega",12909.9189155282,118806.816241547,0.101908651157319,0.0673891191151859,88.3232433613446,147.049945424676,0.179694948753522,48394.4124945492
"Mpanda",237180.714274938,0.0774623580692732,0.141300668353221,0.000618140805668826,0.00125678331695545,28,29.3715791,-3.19732191,1,"Gitega",146.611077811018,298.08476480432,0.876655736492778,3.03832130269273,28,29.3715791,-3.19732191,1,"Gitega",207925.833754579,720631.216769422,1.15264146419238,0.419063744043517,1627.3853507204,1012.69919036702,0.179246826989296,42513.8904568374
"Mukenke",165895.919547284,0.339508618643131,0.269875319414142,0.00245666022184573,0.00310179554114921,29,30.2945314,-2.59545461,1,"Gitega",407.549906518332,514.575223546613,3.66965610563628,5.75274106544336,29,30.2945314,-2.59545461,1,"Gitega",608780.974066837,954356.268969148,4.52161193408618,1.03393186616024,6780.51086028314,1917.63624203427,0.180513433514152,29946.4420434678
"Muramvya",194198.551247032,0.00334610318882309,0.0158679343036662,4.8545680748601e-05,0.00015076797708384,30,29.59502105,-3.24965852,1,"Gitega",9.42750087067924,29.2789227241274,0.0409772596749621,0.388283943912692,30,29.59502105,-3.24965852,1,"Gitega",7957.72446295106,75404.1793803287,0.0910004513487033,0.0502290933279371,75.8870509968921,129.406137583037,0.177733154799538,34515.5211706348
"Murore",149893.801163942,0.328917963928357,0.267538066677051,0.00260593093338054,0.00341225204528231,31,30.73189158,-3.13601584,1,"Gitega",390.612893175108,511.475429596801,3.28215579011583,5.58620065186532,31,30.73189158,-3.13601584,1,"Gitega",491974.807392703,837336.849772583,4.71892586181959,1.13728248886969,5945.36782261417,1862.03555269985,0.184394670333791,27639.6180507039
"Musema",287439.683206241,0.0531659628218752,0.121129829223084,0.000368558477561257,0.000980612298216708,32,29.68877279,-3.1146423,1,"Gitega",105.938332033182,281.866888347555,0.603213420205551,2.6273688413616,32,29.68877279,-3.1146423,1,"Gitega",173387.474409637,755210.067426928,0.703719517763134,0.326872741160683,1148.94664988595,875.780945056773,0.174716266996967,50220.3884365853
"Mutaho",219384.247581389,0.146653979602282,0.190610190413944,0.00103589533216463,0.00162146752992199,33,29.90982779,-3.2165473,1,"Gitega",227.25911802001,355.724434029589,1.59622684484054,4.07117521838792,33,29.90982779,-3.2165473,1,"Gitega",350187.025324556,893151.712058031,1.90640376986492,0.540371564249936,2917.79343385247,1356.90127874869,0.182085293184722,39946.6450409669
"Muyinga",326814.238908712,0.205109663964297,0.214217165956875,0.00168233249470622,0.00250847458998958,34,30.3660234,-2.92732926,1,"Gitega",549.810213848808,819.805213949288,2.11843248640148,4.43865162178325,34,30.3660234,-2.92732926,1,"Gitega",692333.900722789,1450614.55155401,3.13845334802984,0.836830513571797,3969.0848407787,1479.62424805931,0.178119963962615,58212.1404568892
"Ngozi",366595.733529097,0.010048136505052,0.0239683230550023,0.00015713218391936,0.0003526144167441,35,29.83498123,-2.9455671,1,"Gitega",57.6039882249467,129.266940759238,0.123652053611248,0.521122657739996,35,29.83498123,-2.9455671,1,"Gitega",45330.3152959947,191041.342972826,0.289654787779918,0.11756209250534,227.920813739639,173.72758877493,0.181404815341494,66502.2313458253
"Nyabikere",282828.083512144,0.130128264493625,0.19251224592891,0.000899677641257611,0.00167705132082514,36,30.10137516,-3.2203545,1,"Gitega",254.454103055616,474.317211020485,1.69368438314011,4.34872159575066,36,30.10137516,-3.2203545,1,"Gitega",479021.508157964,1229940.59465403,1.64930212452385,0.558984778254003,3114.63234717392,1449.59309352549,0.181829104251886,51426.3770822907
"Nyanza-Lac",278570.479522085,0.0216940196717482,0.062673097593971,0.000189415455201226,0.000547996533408633,37,29.69277209,-4.26539196,1,"Gitega",52.7655541842996,152.655657088083,0.253000891184521,1.39142472523315,37,29.69277209,-4.26539196,1,"Gitega",70478.5795767867,387609.852927084,0.348539545673603,0.182641091659528,467.366904556769,463.78435066377,0.18077975985748,50359.9043913857
"Rumonge",321456.915315988,0.0173897041005645,0.0529145432950602,0.000161419977491034,0.000481326158566746,38,29.48683067,-3.91706212,1,"Gitega",51.889568034644,154.72562219376,0.19952695001773,1.19716060191523,38,29.48683067,-3.91706212,1,"Gitega",64139.3178751067,384835.554229503,0.299730123558026,0.160336642039367,375.213739503798,399.120561505356,0.179546521920102,57716.4710921503
"Rutana",205251.159437843,0.0661512055366667,0.143721777964444,0.000590129249987377,0.0013132888137234,39,30.06662123,-3.8161435,1,"Gitega",121.124712778094,269.554051693477,0.771960573395733,3.25354548212621,39,30.06662123,-3.8161435,1,"Gitega",158445.802729776,667793.982490161,1.10195843366604,0.437716406655002,1426.2174022068,1084.544821371,0.180725033086745,37094.0225804969
"Ruyigi",118387.887266573,0.0537133687931111,0.116751152788889,0.000372276908161697,0.0010264857141668,40,30.33466786,-3.36084579,1,"Gitega",44.0730766353953,121.523475009527,0.621304380850238,2.5819384155585,40,30.33466786,-3.36084579,1,"Gitega",73554.912998326,305670.234070374,0.69234602679271,0.342122382152365,1147.69883711287,860.635515476475,0.180263561096793,21341.0221493981
"Rwibaga",145042.126181624,0.00252216076788889,0.0118893150783,4.259829966943e-05,0.00017040268557362,41,29.51608705,-3.49770267,1,"Gitega",6.17854795577609,24.7155678226566,0.0318304978993735,0.308077644320033,41,29.51608705,-3.49770267,1,"Gitega",4616.76309274485,44684.2365612037,0.0812775187493932,0.0568168007723788,60.412285260252,102.719203445335,0.179574175106217,26045.820164717
"Ryansoro",170536.623649706,0.0195663072084444,0.0648193345636444,0.000226938798805031,0.000601305322743125,42,29.83676162,-3.63821585,1,"Gitega",38.7013765233299,102.544579523209,0.225937190966426,1.5237663122568,42,29.83676162,-3.63821585,1,"Gitega",38530.5657043132,259857.962123438,0.42618107012982,0.200387576010689,421.224522596521,507.8347074202,0.179008896417439,30527.5727982901
"Vumbi",220988.71850429,0.374138442777778,0.280085153111111,0.00319767401626573,0.00395610791447034,43,30.03599031,-2.63887858,1,"Gitega",706.64988304903,874.255218283479,3.59756415917359,5.61157873915152,43,30.03599031,-2.63887858,1,"Gitega",795021.093272734,1240095.59435101,5.83317681527035,1.31889389568007,6593.15641840539,1870.60950991707,0.181914610657188,40201.0766863389
"Zone Centre",199380.71284912,0.003199328076,0.0150128864199778,4.14483855650075e-05,0.000150631302860175,44,29.37230714,-3.38340592,1,"Gitega",8.26400866039637,30.0329765416534,0.0396562499616025,0.383562146558901,44,29.37230714,-3.38340592,1,"Gitega",7906.69138626719,76474.8942028523,0.076875879622054,0.0502513657793896,73.5117263878451,127.867354173736,0.179472437106623,35783.3424470874
"Zone Nord",399973.723313687,0.000696805962111111,0.00326780736297778,8.82590632532857e-06,4.18258021465607e-05,45,29.36498583,-3.33939272,1,"Gitega",3.53013061455949,16.7292218151415,0.00960539318433856,0.0959915871214045,45,29.36498583,-3.33939272,1,"Gitega",3841.9048758318,38394.1125077383,0.0165522731115775,0.0139589320494575,18.1141053045764,31.9868277075666,0.176527500439311,70606.3616179697
"Zone Sud",196759.332384998,0.00519543544666667,0.0228866619442778,0.000102404806878645,0.000290353811718742,46,29.35966899,-3.43755751,1,"Gitega",20.1491014344568,57.129822149219,0.0626395600389825,0.577485047795068,46,29.35966899,-3.43755751,1,"Gitega",12324.9180141602,113625.572466476,0.191984014977808,0.0967147645551026,117.270232552551,192.498765686084,0.180208661272377,35457.7358819471
