"admin_name","pop_size","pfpr_u5","pfpr_all","mortality_pp_u5","mortality_pp_all","node_id.x","lon.x","lat.x","cluster_id.x","seasonality_archetype.x","deaths_u5","deaths_all","cases_pp_u5","cases_pp_all","node_id.y","lon.y","lat.y","cluster_id.y","seasonality_archetype.y","clinical_cases_u5","clinical_cases_all","mortality_rate_u5","mortality_rate_all","incidence_u5","incidence_all","frac_u5","pop_size_u5"
"Bubanza",201303.876182995,0.138858499498835,0.195089389739887,0.00107262120588163,0.00168240106010865,1,29.42838636,-3.04668647,1,"Gitega",215.92280642005,338.673854694251,1.5102928240431,4.15679951876044,1,29.42838636,-3.04668647,1,"Gitega",304027.799651237,836779.855642085,1.9938681594644,0.560932075133472,2793.51133797771,1385.67239876944,0.180880324856427,36411.9105188382
"Bugarama",195016.1571555,0.00331893844011111,0.0141584224379778,6.42520370248274e-05,0.000191583424946174,2,29.4303905,-3.72944816,1,"Gitega",12.5301853499947,37.3618633076919,0.0381772782698683,0.352678440262662,2,29.4303905,-3.72944816,1,"Gitega",7445.18609884589,68777.9941316198,0.119787994882782,0.063875704156253,72.3918356714071,117.570837973011,0.175987728922972,34320.4506010819
"Buhiga",277009.19890515,0.101454360888889,0.173368796044444,0.000746123812425815,0.00149285488717467,3,30.1393365,-3.0502219,1,"Gitega",206.683159564132,413.534536377893,1.14421846965147,3.83664715819042,3,30.1393365,-3.0502219,1,"Gitega",316959.041650631,1062786.55577205,1.37086678513783,0.49757137009226,2105.57186997741,1278.86714846079,0.181320679971699,50227.4963038975
"Busoni",218791.205835172,0.345528007444444,0.273454798666667,0.0027966059522826,0.00353456032240953,5,30.25180248,-2.47173859,1,"Gitega",611.87278854573,773.330715037136,3.36641089245939,5.52420609059077,5,30.25180248,-2.47173859,1,"Gitega",736541.098497847,1208647.71184236,5.07174933379425,1.17792209971281,6136.04846457277,1841.39519392001,0.183029506752313,40045.2464857553
"Butezi",125726.232208091,0.246844517277778,0.237519362933333,0.00195140115160754,0.00267264571781216,6,30.17161805,-3.44652457,1,"Gitega",245.342314318146,336.021676127611,2.44520592761389,4.80955896822436,6,30.17161805,-3.44652457,1,"Gitega",307426.528251784,604687.727657483,3.66965538662785,0.891041772648654,4588.91983959767,1603.11092391559,0.177869271784872,22362.8333671088
"Cankuzo",179215.356633093,0.181504554422222,0.227755837,0.00136072779247927,0.00201846624865248,8,30.52891483,-3.14505865,1,"Gitega",243.863316609734,361.740148604116,1.974174346648,4.96426133917202,8,30.52891483,-3.14505865,1,"Gitega",353802.359590425,889671.86631959,2.50707374635747,0.67263388186172,3652.0265694094,1654.69474149482,0.180271759610718,32307.4676895101
"Cibitoke",305498.934537512,0.137596497311111,0.194063321733333,0.000851661150437274,0.00148621491874696,9,29.19244319,-2.90271457,1,"Gitega",260.181574045579,454.037074170951,1.48153237953809,4.0437784797754,9,29.19244319,-2.90271457,1,"Gitega",452606.563431711,1235370.01707711,1.60502900874928,0.495451842602449,2777.65816471151,1347.92990499924,0.177787493412846,54313.8898117194
"Gahombo",256161.000799576,0.0828771592122222,0.153614375955556,0.000568226584197339,0.0012029262780423,11,29.74184956,-3.01315344,1,"Gitega",145.557490488915,308.142799271425,0.901783946799169,3.32700895061217,11,29.74184956,-3.01315344,1,"Gitega",231001.878317067,852249.942457961,1.09211332364934,0.400891256855327,1720.29626646076,1108.92425331499,0.175021995162166,44833.809442679
"Gihofi",293350.813541338,0.203349730822222,0.230030128111111,0.00142039129030629,0.00212054280045224,13,30.11562611,-3.91875872,1,"Gitega",416.672940558382,622.062955661892,2.14170119644945,4.85715117244667,13,30.11562611,-3.91875872,1,"Gitega",628269.788340903,1424849.24793049,2.62068185595056,0.706871449962658,3936.71700565536,1619.09165106315,0.181329608653083,53193.1882175144
"Gitega",313416.21747821,0.103123433955556,0.171007121677778,0.000658250023334541,0.00133715295484977,14,29.93208819,-3.40581734,1,"Gitega",206.306232468455,419.085421298826,1.14342641756136,3.64479271243242,14,29.93208819,-3.40581734,1,"Gitega",358368.382756743,1142337.14542271,1.22723118841627,0.445807360482873,2120.79025738482,1215.04366503348,0.179966925768413,56404.5531455179
"Kayanza",291321.219954611,0.0131629974113333,0.0509270097229444,0.000194472376692742,0.000502796641438435,18,29.57431919,-2.89999679,1,"Gitega",56.6539300256022,146.475330972926,0.163531050356885,1.26219012530342,18,29.57431919,-2.89999679,1,"Gitega",47640.0650904268,367702.767118056,0.35955147890693,0.167561108858477,302.736187678098,420.680753684431,0.1814183271209,52851.0083789853
"Kibuye",229010.83476279,0.0689624590811111,0.145435816822222,0.000518553685725633,0.0011375683610619,20,29.97990171,-3.64488773,1,"Gitega",118.754412437349,260.515479966524,0.803549366120543,3.2099018715795,20,29.97990171,-3.64488773,1,"Gitega",184021.511108376,735102.307117064,0.965374473874174,0.37921506236083,1480.76979140657,1069.88095420716,0.180955775625613,41440.8332311697
"Kinyinya",335969.532434028,0.375324922666667,0.284066661888889,0.00286880535398894,0.00368325034054387,22,30.41267628,-3.52205978,1,"Gitega",963.831193423902,1237.45989475,3.62874508076967,5.81702898274506,22,30.41267628,-3.52205978,1,"Gitega",1219147.78810847,1954344.50748805,5.44889237267265,1.2278230955305,6882.25143129498,1939.07676324693,0.175729725510365,59039.8337144775
"Kirundo",256307.246344997,0.368536907888889,0.280834139888889,0.00287605530184892,0.00381463067748414,24,30.06174634,-2.49096793,1,"Gitega",737.153814752825,977.71748476911,3.4469198045977,5.54567036084877,24,30.06174634,-2.49096793,1,"Gitega",883470.523488472,1421395.49932621,5.47953998806067,1.27141689798841,6577.95758872072,1848.61947575439,0.174872697758771,44821.1396234715
"Mabayi",303326.537061169,0.0978910270444444,0.1683434702,0.000633280981077408,0.00127337456905696,25,29.25327932,-2.76167182,1,"Gitega",192.09092697691,386.248298413807,1.15178379191692,3.6743022120329,25,29.25327932,-2.76167182,1,"Gitega",349366.589045341,1114513.36609213,1.13296953363936,0.424620480140022,2063.29925787141,1224.8541953962,0.185784722360197,56353.4364723893
"Makamba",295318.120745996,0.0879810448066667,0.159229480544444,0.000548939732580433,0.00114303117920965,26,29.92731052,-4.1790986,1,"Gitega",162.111850228463,337.557819798273,0.995463600292637,3.39791538831131,26,29.92731052,-4.1790986,1,"Gitega",293978.439709465,1003465.98693,1.0215884389268,0.380948760687871,1853.55991257126,1132.61670816357,0.179293344419546,52948.5735362449
"Mpanda",237180.714274938,0.0928638662966667,0.163349238777778,0.000692366968981573,0.00137575033640286,28,29.3715791,-3.19732191,1,"Gitega",164.216092243423,326.301447452017,1.05656776892463,3.54569527863516,28,29.3715791,-3.19732191,1,"Gitega",250597.498113421,840970.538787962,1.28297872392042,0.458602958066525,1934.73494957587,1181.83591527838,0.180870117993795,42898.9037767606
"Mukenke",165895.919547284,0.349299215888889,0.274092446666667,0.00235206455527538,0.0030972639853919,29,30.2945314,-2.59545461,1,"Gitega",390.197912231984,513.823456937276,3.76607076941883,5.8476107980383,29,30.2945314,-2.59545461,1,"Gitega",624775.773372884,970094.770495191,4.37622440351583,1.0324222676739,7012.73825874543,1949.25557775005,0.178960861686433,29688.8767124452
"Murore",149893.801163942,0.341897222777778,0.273792867777778,0.00238174611685215,0.0032099327439451,31,30.73189158,-3.13601584,1,"Gitega",357.008978862427,481.149020470534,3.3418499506488,5.68709761380016,31,30.73189158,-3.13601584,1,"Gitega",500922.592022281,852460.678922891,4.36827867123202,1.06993959651809,6146.11928495791,1895.7311087801,0.181218713150495,27163.5617561657
"Musema",287439.683206241,0.06756842633,0.144168881788889,0.000530869932982489,0.00117482102552256,32,29.68877279,-3.1146423,1,"Gitega",152.593085360205,337.690183400236,0.765943698327676,3.17755603016853,32,29.68877279,-3.1146423,1,"Gitega",220162.614001124,913355.698681723,1.00207300068468,0.391428031722189,1445.73082266397,1059.07192071217,0.176212468368969,50650.4560849663
"Mutaho",219384.247581389,0.161398384755556,0.205572071622222,0.0011512575387597,0.00194720314798543,33,29.90982779,-3.2165473,1,"Gitega",252.567768913198,427.185697508896,1.7469257551336,4.38946101144167,33,29.90982779,-3.2165473,1,"Gitega",383247.992370535,962978.601282974,2.12257879702437,0.648999586232896,3213.69939373838,1463.27124464783,0.181930920919275,39912.7781976644
"Nyabikere",282828.083512144,0.144771638911111,0.207685138177778,0.00110157031630418,0.0018041931380883,36,30.10137516,-3.2203545,1,"Gitega",311.555021414179,510.276487531274,1.86465169081598,4.71137439643631,36,30.10137516,-3.2203545,1,"Gitega",527375.864131161,1332508.99125227,2.0404392577982,0.60150707088867,3443.87670316609,1570.3679989406,0.180038663502231,50919.9901564236
"Nyanza-Lac",278570.479522085,0.0294553372787778,0.0854907254844444,0.000268926315116492,0.000776965145409944,37,29.69277209,-4.26539196,1,"Gitega",74.9149325581086,216.439553128795,0.347616440309044,1.92606634909008,37,29.69277209,-4.26539196,1,"Gitega",96835.6784666506,536545.226457376,0.500101678564268,0.258864960506018,649.207843461858,642.017443138822,0.179124422877938,49898.7763752239
"Rumonge",321456.915315988,0.0211752725286667,0.0656064954318,0.000244898844193819,0.000639623322089579,38,29.48683067,-3.91706212,1,"Gitega",78.7244270189959,205.611340083081,0.251372989182882,1.50307443716186,38,29.48683067,-3.91706212,1,"Gitega",80805.5856964885,483173.672060367,0.460682061796938,0.213282895147727,471.843550067285,501.028350942067,0.178356671421581,57333.9854212087
"Rutana",205251.159437843,0.0800867197111111,0.167475443588889,0.000540220398767854,0.00144494073996797,39,30.06662123,-3.8161435,1,"Gitega",110.880863199076,296.5757621974,0.907309512675246,3.78170626932,39,30.06662123,-3.8161435,1,"Gitega",186226.329445578,776199.596431289,1.01259799747506,0.481670841140905,1703.83713231897,1260.48352243178,0.17762474025894,36457.6838829931
"Ruyigi",118387.887266573,0.0691256974577778,0.142537829566667,0.000514438800980305,0.00113231969254196,40,30.33466786,-3.36084579,1,"Gitega",60.9033227760073,134.052936110379,0.791998005110437,3.17431718939832,40,30.33466786,-3.36084579,1,"Gitega",93762.9705443652,375800.705566833,0.957197942722248,0.377425569228541,1455.88788070462,1057.96587379171,0.181533387296246,21491.3541903471
"Ryansoro",170536.623649706,0.0243138194724444,0.0788051241031111,0.000297856157589791,0.000884006878059636,42,29.83676162,-3.63821585,1,"Gitega",50.7953834486378,150.755548267408,0.287833462190432,1.89005969144363,42,29.83676162,-3.63821585,1,"Gitega",49086.1468153616,322324.398275202,0.558762919002974,0.294583194628629,536.481530783731,630.041134102217,0.178835141591252,30497.9412368893
"Vumbi",220988.71850429,0.383705751111111,0.284483002333333,0.00277106427879568,0.00344162207899924,43,30.03599031,-2.63887858,1,"Gitega",612.373943864072,760.559652814112,3.6510816492663,5.70143552153118,43,30.03599031,-2.63887858,1,"Gitega",806847.85482589,1259952.92953801,5.16188401430975,1.14737096192059,6758.39478511471,1900.54541460973,0.180360690983816,39857.6779690617
