"admin_name","pop_size","pfpr_u5","pfpr_all","mortality_pp_u5","mortality_pp_all","node_id.x","lon.x","lat.x","cluster_id.x","seasonality_archetype.x","deaths_u5","deaths_all","cases_pp_u5","cases_pp_all","node_id.y","lon.y","lat.y","cluster_id.y","seasonality_archetype.y","clinical_cases_u5","clinical_cases_all","mortality_rate_u5","mortality_rate_all","incidence_u5","incidence_all","frac_u5","pop_size_u5"
"Bubanza",201303.876182995,0.166978928428392,0.213608304663,0.00129429848533056,0.00219771921078389,1,29.42838636,-3.04668647,1,"Gitega",260.547302034822,442.40939589263,1.48576810159881,4.23915947360793,1,29.42838636,-3.04668647,1,"Gitega",299090.877960891,853359.233795141,2.39210773154965,0.732569372641288,2735.15237735394,1412.9855843731,0.181198183542994,36475.8967045224
"Bugarama",195016.1571555,0.0306054256595698,0.0732925359379946,0.000301564190613582,0.000851113635647332,2,29.4303905,-3.72944816,1,"Gitega",58.8098895891696,165.980910526589,0.141931876934872,1.39174539997577,2,29.4303905,-3.72944816,1,"Gitega",27679.0092177061,271412.83964212,0.566164076571323,0.283758171443488,264.385747047451,463.872906951041,0.178116054577496,34735.5084914026
"Buhiga",277009.19890515,0.107353683827563,0.18288226763735,0.00101112865826659,0.00195178315702699,3,30.1393365,-3.0502219,1,"Gitega",280.091939616467,540.66188876461,1.14802469989411,3.92488964929927,3,30.1393365,-3.0502219,1,"Gitega",318013.402440993,1087230.53754351,1.8602814051741,0.650482946259621,2108.44326013576,1308.14987384433,0.182176908711218,50464.6795411112
"Busoni",218791.205835172,0.391809256628493,0.287304087968498,0.00313856426362348,0.00404308865312076,5,30.25180248,-2.47173859,1,"Gitega",686.69025982936,884.592241714793,2.92925644054037,5.12942672503948,5,30.25180248,-2.47173859,1,"Gitega",640895.548826271,1122273.45841454,5.90396609112089,1.34739064362051,5513.35870117031,1709.84876398273,0.177406960649599,38815.0828440786
"Butezi",125726.232208091,0.305153654455825,0.260814454985962,0.00235807355787967,0.00322809586441761,6,30.17161805,-3.44652457,1,"Gitega",296.471703701738,405.856330239747,2.2570579484598,4.70052250193778,6,30.17161805,-3.44652457,1,"Gitega",283771.391735174,590978.983577987,4.41508130819965,1.07619275226346,4213.9462877169,1566.86643553055,0.178662796853907,22462.6002842013
"Cankuzo",179215.356633093,0.191136374157282,0.237467008038855,0.00140058295268607,0.00227807177254353,8,30.52891483,-3.14505865,1,"Gitega",251.005973359865,408.26544515217,1.90547585113116,5.05778033793035,8,30.52891483,-3.14505865,1,"Gitega",341490.534216216,906431.907034033,2.60462022033333,0.759362397888772,3536.62706511609,1685.93272216021,0.179982387006156,32255.6076749836
"Cibitoke",305498.934537512,0.186959691249401,0.219511272936852,0.00137959959788559,0.00220250539263776,9,29.19244319,-2.90271457,1,"Gitega",421.466207242428,672.863050763961,1.4478167497707,4.11151740174515,9,29.19244319,-2.90271457,1,"Gitega",442306.474460512,1256064.18556558,2.59323945123987,0.734239229279957,2719.2414718863,1370.36690890561,0.177478899729238,54219.6147701723
"Gahombo",256161.000799576,0.0996583808985354,0.170893411119867,0.000739700323350878,0.00146439652823386,11,29.74184956,-3.01315344,1,"Gitega",189.482375121331,375.121280239811,0.935536926550463,3.51735407797677,11,29.74184956,-3.01315344,1,"Gitega",239648.075390126,901008.940781,1.37564382665059,0.488194040048816,1758.62604091536,1172.36101695874,0.176938328085372,45324.6992021525
"Gihofi",293350.813541338,0.260551030808884,0.25170427155333,0.00217472895826836,0.00301772773969241,13,30.11562611,-3.91875872,1,"Gitega",637.95850913993,885.252887485032,1.98131510471978,4.73527785154331,13,30.11562611,-3.91875872,1,"Gitega",581220.39785129,1389097.61009451,3.97452078125154,1.00619502740467,3612.20273435687,1578.37702693856,0.182828079441025,53632.7658422251
"Gitega",313416.21747821,0.151648792305013,0.202998425165046,0.00120993721670714,0.00205478243641748,14,29.93208819,-3.40581734,1,"Gitega",379.213945846465,644.002138962626,1.19520592309503,3.94348080576875,14,29.93208819,-3.40581734,1,"Gitega",374596.919523998,1235950.83784197,2.21330164557337,0.684927887345628,2191.77892387577,1314.51603061361,0.181217583894932,56796.5296848899
"Kayanza",291321.219954611,0.0174296802128992,0.0587511077974319,0.000245643119157681,0.000745576848919125,18,29.57431919,-2.89999679,1,"Gitega",71.5610531464714,217.202357197034,0.170972252672701,1.38831481132105,18,29.57431919,-2.89999679,1,"Gitega",49807.8452269994,404445.564515103,0.468872720400263,0.248661072371965,325.120298616537,462.792102530473,0.17691296473276,51538.5007117347
"Kibuye",229010.83476279,0.0860802878722222,0.164249606833333,0.000670857594827397,0.00151289598891244,20,29.97990171,-3.64488773,1,"Gitega",153.63365779838,346.469573330115,0.818620864858017,3.44510496846635,20,29.97990171,-3.64488773,1,"Gitega",187473.047615372,788966.364673915,1.26185592671319,0.504417810034192,1538.8046549146,1148.30569234938,0.177515352051799,40652.9389565931
"Kinyinya",335969.532434028,0.395995936888889,0.291875202111111,0.00330706054534091,0.00416784634010741,22,30.41267628,-3.52205978,1,"Gitega",1111.07158514921,1400.26938614276,3.52052482106291,5.72893591504596,22,30.41267628,-3.52205978,1,"Gitega",1182789.0780549,1924747.9207225,6.14242768526921,1.38943856589938,6528.15395919424,1909.64144376311,0.179928895142197,60450.626772295
"Kirundo",256307.246344997,0.387906141222222,0.288573547111111,0.0032636898569562,0.00426599836668792,24,30.06174634,-2.49096793,1,"Gitega",836.50736016054,1093.40629427804,3.3194511200155,5.45611053752528,24,30.06174634,-2.49096793,1,"Gitega",850799.375947988,1398440.66762703,6.21126232205192,1.4219279342614,6287.32170886452,1818.74059295604,0.175813553858246,45062.2878595349
"Mabayi",303326.537061169,0.110125317633333,0.181024318044444,0.000961556692383718,0.00185689694720298,25,29.25327932,-2.76167182,1,"Gitega",291.665661688745,563.246120674536,1.11522458776516,3.82638572397168,25,29.25327932,-2.76167182,1,"Gitega",338277.212252276,1160644.33111262,1.79757977335352,0.619091381786495,2080.79572662048,1275.51324000251,0.178475804320189,54136.4476736496
"Makamba",295318.120745996,0.1568672312,0.202223022888889,0.00114606544423287,0.00198565302195613,26,29.92731052,-4.1790986,1,"Gitega",338.453893242776,586.399318897692,1.05638475963554,3.7099054256254,26,29.92731052,-4.1790986,1,"Gitega",311969.56200028,1095602.29844107,2.10602549473826,0.66176412165371,1949.27911833065,1236.68381471455,0.180755352430187,53380.3309944631
"Mpanda",237180.714274938,0.144005514866667,0.197127744911111,0.00114834819965353,0.00198839197974642,28,29.3715791,-3.19732191,1,"Gitega",272.366046230163,471.608230014815,1.08105729937574,3.74598666218383,28,29.3715791,-3.19732191,1,"Gitega",256405.942438074,888475.792201152,2.12389761048934,0.662781140246325,1985.38925384765,1248.73327645425,0.180721848736288,42863.7371683601
"Mukenke",165895.919547284,0.343581105111111,0.274591292333333,0.0025721428684188,0.00332652264567662,29,30.2945314,-2.59545461,1,"Gitega",426.708006363325,551.856533199388,3.71666750919357,5.83355795292675,29,30.2945314,-2.59545461,1,"Gitega",616579.974089181,967763.460833155,4.81524081997618,1.10878206815797,6954.82626773755,1944.52039447913,0.17870082722795,29645.738056841
"Murore",149893.801163942,0.383258766555556,0.288464765,0.00336700491772102,0.00439564182489165,31,30.73189158,-3.13601584,1,"Gitega",504.693165654889,658.879461688216,3.12600174870865,5.48865589849561,31,30.73189158,-3.13601584,1,"Gitega",468568.28455907,822715.495906398,6.2043662701715,1.46556041187299,5752.94071751965,1829.64904745398,0.181049358117297,27138.1764864935
"Musema",287439.683206241,0.0837244966055556,0.1607514272,0.00074345040201125,0.00160424121117786,32,29.68877279,-3.1146423,1,"Gitega",213.697148033666,461.12258552736,0.814643386810353,3.37677854698438,32,29.68877279,-3.1146423,1,"Gitega",234160.837030827,970620.15580282,1.38209359724001,0.534683345448867,1516.17460004889,1125.48810923432,0.179289570910028,51534.9374645614
"Mutaho",219384.247581389,0.168028771411111,0.211798401766667,0.00125460389091795,0.00199982137729303,33,29.90982779,-3.2165473,1,"Gitega",275.240330621717,438.729308154609,1.75441773808751,4.46073029025068,33,29.90982779,-3.2165473,1,"Gitega",384891.615413771,978613.958390156,2.29316234055304,0.666672374534087,3211.97933221124,1487.0141760247,0.18263945265868,40068.2189002011
"Nyabikere",282828.083512144,0.1437475017,0.210430328977778,0.00104367959768114,0.00178867156214649,36,30.10137516,-3.2203545,1,"Gitega",295.181900412881,505.886549954564,1.85006976579272,4.75581695963718,36,30.10137516,-3.2203545,1,"Gitega",523251.686222916,1345078.59622874,1.91782943193002,0.596295774455014,3414.89774527142,1585.28889865633,0.180670644428156,51098.7321105194
"Nyanza-Lac",278570.479522085,0.0852384193911111,0.153352518111111,0.000689691063750102,0.00144441338291417,37,29.69277209,-4.26539196,1,"Gitega",192.127570350963,402.370928706517,0.501376625055129,2.84921522197389,37,29.69277209,-4.26539196,1,"Gitega",139668.726862772,793707.250646891,1.31584561963312,0.481460797094857,946.832267021988,949.732947388526,0.177070499979768,49326.6140885793
"Rumonge",321456.915315988,0.0652655401822222,0.130025627355556,0.000591361157968609,0.00133870771947971,38,29.48683067,-3.91706212,1,"Gitega",190.09713367828,430.33685401365,0.393548010016039,2.44955384644326,38,29.48683067,-3.91706212,1,"Gitega",126508.729328501,787426.023378062,1.10602454293283,0.446305554139421,737.619271550538,816.470272154589,0.17805291070201,57236.3394373011
"Rutana",205251.159437843,0.103315741507778,0.186579759233522,0.00101230473621391,0.00194389238845622,39,30.06662123,-3.8161435,1,"Gitega",207.776720812325,398.986166553037,0.965830358805087,4.05667832249039,39,30.06662123,-3.8161435,1,"Gitega",198237.800965012,832637.929157517,1.87926921792397,0.648187358073838,1785.55966746793,1352.2240311652,0.180350984824148,37017.2487409131
"Ruyigi",118387.887266573,0.0913689235055556,0.162493476288889,0.00080762085129371,0.00165167615777287,40,30.33466786,-3.36084579,1,"Gitega",95.6125262970935,195.5384507673,0.815907150165782,3.34915234570234,40,30.33466786,-3.36084579,1,"Gitega",96593.5237138174,396499.070341587,1.48746626244738,0.55061680931952,1500.28297954877,1116.4718978932,0.181301726534326,21463.9283621808
"Ryansoro",170536.623649706,0.0586218534322222,0.12966507799,0.000556779204683158,0.00126566977145369,42,29.83676162,-3.63821585,1,"Gitega",94.9512456850343,215.843049479207,0.422115960035708,2.69026764386532,42,29.83676162,-3.63821585,1,"Gitega",71986.2306131439,458789.160698841,1.02169248327198,0.42208951343522,778.192279267107,896.834570080607,0.180009286354873,30698.1759205532
"Vumbi",220988.71850429,0.413298184777778,0.292879198777778,0.00342803014482237,0.00425289053268012,43,30.03599031,-2.63887858,1,"Gitega",757.555988698371,939.840828756008,3.33737150833775,5.39014587514947,43,30.03599031,-2.63887858,1,"Gitega",737521.452800289,1191161.42950047,6.40485707549389,1.41763107162741,6269.14678855642,1796.75593976195,0.177573687546584,39241.7816510008
