"admin_name","pop_size","pfpr_u5","pfpr_all","mortality_pp_u5","mortality_pp_all","node_id.x","lon.x","lat.x","cluster_id.x","seasonality_archetype.x","deaths_u5","deaths_all","cases_pp_u5","cases_pp_all","node_id.y","lon.y","lat.y","cluster_id.y","seasonality_archetype.y","clinical_cases_u5","clinical_cases_all","mortality_rate_u5","mortality_rate_all","incidence_u5","incidence_all","frac_u5","pop_size_u5"
"Bubanza",201303.876182995,0.152978433347087,0.198499768565953,0.00125373063884833,0.00205907917123704,1,29.42838636,-3.04668647,1,"Gitega",252.380837289551,414.500618537686,1.41374614137252,4.0761261990746,1,29.42838636,-3.04668647,1,"Gitega",284592.57819704,820540.003684776,2.3508290489119,0.6863387659828,2642.1477008668,1358.76054835486,0.178776438573687,35988.3900550743
"Bugarama",195016.1571555,0.0273002086331948,0.0700257087026106,0.00026949582897556,0.000763983858450326,2,29.4303905,-3.72944816,1,"Gitega",52.5560409362496,148.989196203814,0.137928931559743,1.29575059791696,2,29.4303905,-3.72944816,1,"Gitega",26898.3701933451,252692.302237706,0.50842828729924,0.254653511273495,257.760670230585,431.888706898946,0.178321597374088,34775.5926577249
"Buhiga",277009.19890515,0.102042032424796,0.175226827823192,0.000911024209827139,0.00170942695183535,3,30.1393365,-3.0502219,1,"Gitega",252.362086547413,473.526990514783,1.13392203161653,3.80802854049416,3,30.1393365,-3.0502219,1,"Gitega",314106.833598995,1054858.93541023,1.6742454795567,0.569822071249527,2085.97555397435,1269.31829260772,0.181017541312361,50143.5241067171
"Busoni",218791.205835172,0.381124855341211,0.281940707265776,0.00307705990543473,0.00400749930161202,5,30.25180248,-2.47173859,1,"Gitega",673.233647137126,876.805604583304,3.10858910266772,5.27181162257846,5,30.25180248,-2.47173859,1,"Gitega",680131.958218745,1153426.02183982,5.61387271813812,1.33596265484743,5676.98526610367,1757.2398124993,0.182805003677845,39996.1271873787
"Butezi",125726.232208091,0.284129560896444,0.250603740849713,0.0023686273360454,0.00319531492777022,6,30.17161805,-3.44652457,1,"Gitega",297.798590466076,401.734906586818,2.32502370201824,4.73384711346017,6,30.17161805,-3.44652457,1,"Gitega",292316.469849261,595168.761424495,4.36282488039926,1.06494258394105,4269.13290520637,1577.94718710229,0.181543264148381,22824.7505841342
"Cankuzo",179215.356633093,0.176082781197594,0.224280722537243,0.00146172866702997,0.00228021948920008,8,30.52891483,-3.14505865,1,"Gitega",261.964224362592,408.650348958721,1.91072747596064,4.9500222590642,8,30.52891483,-3.14505865,1,"Gitega",342431.706032935,887120.00449994,2.68675725728562,0.759947263775564,3513.87323367762,1649.9784977782,0.181241636636692,32481.2845466102
"Cibitoke",305498.934537512,0.169743000155538,0.20534010142915,0.00138370283981824,0.00220898919380961,9,29.19244319,-2.90271457,1,"Gitega",422.719743281003,674.843845113714,1.4327055541779,3.98970565050758,9,29.19244319,-2.90271457,1,"Gitega",437690.020307323,1218850.82534836,2.53813731715564,0.736291637655401,2638.70669682027,1329.79606804643,0.181149943081077,55341.1146028
"Gahombo",256161.000799576,0.093868711719036,0.162486867146778,0.000846854301689928,0.00158801056645394,11,29.74184956,-3.01315344,1,"Gitega",216.931045452318,406.786375983144,0.91915133663917,3.3370297987377,11,29.74184956,-3.01315344,1,"Gitega",235450.726279758,854816.892942656,1.59291294394642,0.529162156358021,1725.17505277239,1112.30243277529,0.177015890897779,45344.5677698037
"Gihofi",293350.813541338,0.244897512633691,0.242297031110812,0.00194772380279258,0.00276261830349716,13,30.11562611,-3.91875872,1,"Gitega",571.366362103032,810.416326835082,2.00956303548733,4.72662927446447,13,30.11562611,-3.91875872,1,"Gitega",589506.951322808,1386560.54297246,3.53513043435578,0.920793495914217,3645.93158002877,1575.47901341571,0.183582530485646,53854.0846699419
"Gitega",313416.21747821,0.134532343601101,0.18434321670476,0.00107720809923768,0.00182231496467263,14,29.93208819,-3.40581734,1,"Gitega",337.614487899967,571.143063281634,1.13584294396013,3.69093126077006,14,29.93208819,-3.40581734,1,"Gitega",355991.599145299,1156797.71472263,1.95800633032091,0.607517195844953,2075.09784337343,1230.3233375676,0.182078983126323,57066.506173731
"Kayanza",291321.219954611,0.0179027047199014,0.0596828535693951,0.000264300439253907,0.000702949835659515,18,29.57431919,-2.89999679,1,"Gitega",76.9963263979877,204.784203691223,0.186168630682144,1.37685673583004,18,29.57431919,-2.89999679,1,"Gitega",54234.8726076017,401107.583984732,0.497245804087487,0.234392057796209,351.631727586173,458.959231808255,0.178741819512772,52071.2849173676
"Kibuye",229010.83476279,0.0771607721755423,0.146860862774075,0.000620579945268491,0.00140320114195739,20,29.97990171,-3.64488773,1,"Gitega",142.119531302984,321.348264859762,0.787805505980363,3.18187668579745,20,29.97990171,-3.64488773,1,"Gitega",180415.996555285,728684.235926734,1.14406266549,0.467744050951031,1447.68434379433,1060.63568567567,0.181347011495788,41530.4304843878
"Kinyinya",335969.532434028,0.386036499569261,0.28604620324588,0.00327529355242334,0.00415094963683226,22,30.41267628,-3.52205978,1,"Gitega",1100.39884339186,1394.59260864373,3.47991151961723,5.69462191215388,22,30.41267628,-3.52205978,1,"Gitega",1169144.24615759,1913219.46121491,6.21429689357285,1.38376772326875,6612.5186571713,1898.235363455,0.175643079356031,59010.7232465186
"Kirundo",256307.246344997,0.372584075838938,0.281335064630785,0.00317762018816958,0.00400092794373792,24,30.06174634,-2.49096793,1,"Gitega",814.447080360016,1025.46682408422,3.42047715815244,5.54170735954284,24,30.06174634,-2.49096793,1,"Gitega",876693.081592012,1420379.75337423,5.97048206483806,1.33373541808528,6420.68772913965,1847.24797727401,0.177710101110108,45548.3866632226
"Mabayi",303326.537061169,0.0965814526400225,0.164319929415618,0.00087569507475912,0.00165559659809509,25,29.25327932,-2.76167182,1,"Gitega",265.621554548205,502.186382870436,1.05978111879891,3.56129033692076,25,29.25327932,-2.76167182,1,"Gitega",321459.736808085,1080233.86536758,1.59296206157002,0.551966911398071,1933.63038598884,1187.09918757,0.182566993469468,55377.4139107629
"Makamba",295318.120745996,0.136135247467185,0.180426027325643,0.00109348593542973,0.00190027388547869,26,29.92731052,-4.1790986,1,"Gitega",322.926211513285,561.185312762258,0.98490824041102,3.43123170329182,26,29.92731052,-4.1790986,1,"Gitega",290861.250665428,1013304.89846022,2.03364341808331,0.633491145332365,1829.77051627307,1143.80137492811,0.179508089233483,53011.9915711366
"Mpanda",237180.714274938,0.127864055354759,0.17915577782109,0.0010903801104716,0.00193519455665226,28,29.3715791,-3.19732191,1,"Gitega",258.61713343284,458.990827207755,1.03793406199309,3.53789554616121,28,29.3715791,-3.19732191,1,"Gitega",246177.942193809,839120.592668637,1.9854160914806,0.645007307939624,1890.53739082956,1179.25977331491,0.181952026406466,43155.5115868581
"Mukenke",165895.919547284,0.339068191199359,0.272410717716964,0.00266568505430197,0.0034662434413839,29,30.2945314,-2.59545461,1,"Gitega",442.226273306877,575.035643083125,3.82921386276345,5.95662689987054,29,30.2945314,-2.59545461,1,"Gitega",635250.954906349,988180.09695411,4.89819960189228,1.15555543070862,7026.83963554201,1985.56807733322,0.181820136068745,30163.2186653368
"Murore",149893.801163942,0.364627072703353,0.280106245030629,0.00311036247481474,0.00399267153604085,31,30.73189158,-3.13601584,1,"Gitega",466.224054347668,598.476713336238,3.15679206767254,5.51978014920672,31,30.73189158,-3.13601584,1,"Gitega",473183.562507617,827380.828153866,5.71435513532599,1.33114758152504,5793.63954017037,1839.907639731,0.181649586310325,27228.1469719121
"Musema",287439.683206241,0.0740306420890271,0.148572844255719,0.000605802619083634,0.00128746169796973,32,29.68877279,-3.1146423,1,"Gitega",174.131712914911,370.067582604589,0.75234788657632,3.11866121798143,32,29.68877279,-3.1146423,1,"Gitega",216254.638178382,896426.992524173,1.1534398648591,0.42920929705834,1424.96881878509,1039.51487670919,0.17584685140995,50545.3632620908
"Mutaho",219384.247581389,0.159358622944288,0.200293329925933,0.00127374573964459,0.00200915726909312,33,29.90982779,-3.2165473,1,"Gitega",279.439750701928,440.777455752673,1.68297070124311,4.29923880880487,33,29.90982779,-3.2165473,1,"Gitega",369217.260993743,943185.271242364,2.36717419895115,0.669806734701743,3118.64056536318,1433.03642475181,0.179801419220748,39445.5990698098
"Nyabikere",282828.083512144,0.137816570587779,0.205099811718552,0.00108124700443463,0.00186269093793706,36,30.10137516,-3.2203545,1,"Gitega",305.807018067492,526.821308152177,1.82952317876236,4.65433345118014,36,30.10137516,-3.2203545,1,"Gitega",517440.534390404,1316376.21002374,2.01028999039826,0.620856022396279,3386.91255955568,1551.5105673631,0.180296058638403,50992.7887294927
"Nyanza-Lac",278570.479522085,0.0695718339045144,0.124398029787964,0.00061960007532875,0.0014252674959288,37,29.69277209,-4.26539196,1,"Gitega",172.60229009625,397.037449788128,0.448535068086856,2.40463393490064,37,29.69277209,-4.26539196,1,"Gitega",124948.628999427,669860.02832035,1.15058999391366,0.475055233975465,829.434110251512,801.506289542332,0.180927851785811,50401.158430874
"Rumonge",321456.915315988,0.0569619655341408,0.113196425593894,0.000613382372663821,0.00130290319549284,38,29.48683067,-3.91706212,1,"Gitega",197.176005425714,418.827242178473,0.368492668050443,2.13450496116534,38,29.48683067,-3.91706212,1,"Gitega",118454.516388054,686151.380542882,1.14963904799714,0.434191199240145,693.75703905068,711.493752588954,0.177466662380182,57047.8858601571
"Rutana",205251.159437843,0.091093511371809,0.170346567548835,0.000845330613399024,0.00173167373404726,39,30.06662123,-3.8161435,1,"Gitega",173.505088508453,355.42804168126,0.891840194408451,3.76738646672438,39,30.06662123,-3.8161435,1,"Gitega",183051.233935606,773260.440345619,1.58492030029873,0.577143808032637,1659.02779036734,1255.80013634889,0.179233674495223,36787.9195004495
"Ruyigi",118387.887266573,0.0740922127208281,0.138613996451781,0.000786301637816602,0.00154549084607078,40,30.33466786,-3.36084579,1,"Gitega",93.0885896553536,182.967396056148,0.719003814283688,2.97618393577254,40,30.33466786,-3.36084579,1,"Gitega",85121.3425096532,352344.128272825,1.44506962706538,0.515135146025731,1322.36333476716,992.093974881441,0.181315159034481,21465.5186074949
"Ryansoro",170536.623649706,0.0469692645037296,0.10543956137299,0.000439474380242663,0.00105989063035478,42,29.83676162,-3.63821585,1,"Gitega",74.9464769871307,180.750169538663,0.355138308324766,2.29413680399165,42,29.83676162,-3.63821585,1,"Gitega",60564.0880303739,391234.344743263,0.829216651460693,0.353297748612859,668.090626439017,764.715291359946,0.176832460995172,30156.410849785
"Vumbi",220988.71850429,0.40075206207944,0.288891877234959,0.00321572034153465,0.00410220256253285,43,30.03599031,-2.63887858,1,"Gitega",710.63791734392,906.540487339148,3.47485945921901,5.51124543688669,43,30.03599031,-2.63887858,1,"Gitega",767904.73887532,1217923.06646021,5.91992977366238,1.36766871051767,6392.67283425114,1837.18365705622,0.181172668581835,40037.1158579021
